Id,Time(millis),Time(text),FlightMode,GpsCount,GpsSignalLevel,Latitude,Longitude,Altitude(meters),Altitude(feet),Altitude(ASL_meters),HomeLatitude,HomeLongitude,HomeDistance(meters),HomeDistance(feet),FlyZoneInfo,Battery1_Power(%),Battery1_Voltage,Battery1_Temperature(C),Battery1_Current,Battery1_ChargeRemaining,VelocityX(m/s),VelocityY(m/s),VelocityZ(m/s),Speed(m/s),Speed(km/h),Speed(mph),Pitch,Roll,Yaw,UpLinkQuality(%),DownLinkQuality(%),FlyState,RadioChannel,Timestamp,LastUpdated,IsFlying,IsTakingPhoto,IsTakingVideo,IsTakingInterval,IsTakingPanorama,GimbalPitch,GimbalYaw,GimbalRoll,RcLeftHorizontal,RcLeftVertical,RcRightHorizontal,RcRightVertical,Battery1_Cell1,Battery1_Cell2,Battery1_DischargeCount,Battery1_FullCapacity,Battery1_Serial,DroneName,DroneType,CameraType,DroneSerial,DroneId,CameraId,AppVersion,UtcShiftMillis,AppTip,AppWarning,AppError,DroneError,InstanceId,InstanceName,MissionExecutionState,LastReachedWaypointId,MissionId,MissionName,MissionASL(meters),MediaId, MediaType, MediaFileName, MediaFileSize,VsCommandTimestamp, VsDroneLatitude, VsDroneLongitude, VsDroneX, VsDroneY, VsDroneAlt, VsTargetLatitude, VsTargetLongitude, VsTargetX, VsTargetY, VsTargetAlt, VsVelocityEast, VsVelocityNorth, VsVelocityUp, VsSpeed, VsResPitch, VsResRoll, VsResAlt, VsResYaw, VsResGimbal,CalibrationNorthSouth,CalibrationEastWest,CalibrationVertical,WpReachedMetadata
0,11,0.011s,ASSISTED_TAKEOFF,22,5,53.93224416,13.0590562,0,0,,53.93224419,13.05905614,0.0,0.0,,57,7.679,29.6,-1821,1080,0,-.1,-.4,0.4,1.5,0.9,-3.2,-1.1,-80,100,100,10,0,1745579882836,11,0,0,1,0,0,0,2.9,0,0,467,0,0,3856,3834,28,1895,3QFPJ8JCA50AJ4,DJI Mini 2,,Mavic Mini 2,3NZCJ8Q01434W4,DJI_MINI_2,,Android 2.7.3 (178),7200000,,,,,57911e63-5854-4165-8c6a-7b622a5f22ad,Rustow_North,Idle,-1,,,,,,,,0,0.0,0.0,0.0,0.0,0.0,0.0,0.0,0.0,0.0,0.0,0,0,0,0,0,0,0,0,0,0,0,0,
1,117,0.117s,GPS_ATTI,22,5,53.93224416,13.0590562,0,0,,53.93224419,13.05905614,0.0,0.0,,57,7.679,29.6,-1821,1080,0,-.1,-.6,0.6,2.2,1.4,1.5,1.3,-80.9,100,100,6,0,1745579882942,106,1,0,1,0,0,0,2.5,0,0,474,0,0,3856,3834,,,,,,,,,,,,,,,,57911e63-5854-4165-8c6a-7b622a5f22ad,Rustow_North,Idle,-1,,,,,,,,0,0.0,0.0,0.0,0.0,0.0,0.0,0.0,0.0,0.0,0.0,0,0,0,0,0,0,0,0,0,0,0,0,
2,219,0.219s,GPS_ATTI,22,5,53.93224445,13.05905528,0.1,0.3,,53.93224419,13.05905614,0.1,0.2,,57,7.679,29.6,-1821,1080,0.1,-.1,-.9,0.9,3.3,2.0,1.8,-.7,-80.7,100,100,6,0,1745579883044,102,1,0,1,0,0,0,2.5,0,0,438,0,0,3822,3790,,,,,,,,,,,,,,,,57911e63-5854-4165-8c6a-7b622a5f22ad,Rustow_North,Idle,-1,,,,,,,,0,0.0,0.0,0.0,0.0,0.0,0.0,0.0,0.0,0.0,0.0,0,0,0,0,0,0,0,0,0,0,0,0,
3,322,0.322s,GPS_ATTI,22,5,53.93224453,13.059055,0.2,0.7,,53.93224419,13.05905614,0.1,0.3,,57,7.679,29.6,-1821,1080,0,-.1,-1.1,1.1,4.0,2.5,2.6,-1.6,-80.4,100,100,6,0,1745579883147,103,1,0,1,0,0,0,2.1,0,0,383,0,0,3822,3790,,,,,,,,,,,,,,,,57911e63-5854-4165-8c6a-7b622a5f22ad,Rustow_North,Idle,-1,,,,,,,,0,0.0,0.0,0.0,0.0,0.0,0.0,0.0,0.0,0.0,0.0,0,0,0,0,0,0,0,0,0,0,0,0,
4,425,0.425s,GPS_ATTI,22,5,53.93224463,13.05905475,0.4,1.3,,53.93224419,13.05905614,0.1,0.3,,57,7.679,29.6,-1821,1080,0,-.1,-1.2,1.2,4.3,2.7,3,-1.9,-80.4,100,100,6,0,1745579883250,103,1,0,1,0,0,0,2,0,0,63,0,0,3822,3790,,,,,,,,,,,,,,,,57911e63-5854-4165-8c6a-7b622a5f22ad,Rustow_North,Idle,-1,,,,,,,,0,0.0,0.0,0.0,0.0,0.0,0.0,0.0,0.0,0.0,0.0,0,0,0,0,0,0,0,0,0,0,0,0,
5,530,0.53s,GPS_ATTI,22,5,53.93224464,13.05905457,0.6,2.0,,53.93224419,13.05905614,0.1,0.4,,57,7.679,29.6,-1821,1080,0,0,-1.3,1.3,4.7,2.9,2.5,0.1,-80.3,100,100,6,0,1745579883355,105,1,0,1,0,0,0,1.9,0,0,0,0,0,3822,3790,,,,,,,,,,,,,Image Transmission Signal Weak; ,,,57911e63-5854-4165-8c6a-7b622a5f22ad,Rustow_North,Idle,-1,,,,,,,,0,0.0,0.0,0.0,0.0,0.0,0.0,0.0,0.0,0.0,0.0,0,0,0,0,0,0,0,0,0,0,0,0,
6,633,0.633s,GPS_ATTI,22,5,53.93224453,13.0590546,0.7,2.3,,53.93224419,13.05905614,0.1,0.4,,57,7.679,29.6,-1821,1080,0,0,-1.2,1.2,4.3,2.7,1.3,1.5,-80.3,100,100,6,0,1745579883458,103,1,0,1,0,0,0,1.9,0,0,0,0,0,3822,3790,,,,,,,,,,,,,,,,57911e63-5854-4165-8c6a-7b622a5f22ad,Rustow_North,Idle,-1,,,,,,,,0,0.0,0.0,0.0,0.0,0.0,0.0,0.0,0.0,0.0,0.0,0,0,0,0,0,0,0,0,0,0,0,0,
7,736,0.736s,GPS_ATTI,19,5,53.93224441,13.05905463,0.8,2.6,,53.93224419,13.05905614,0.1,0.3,,57,7.323,29.6,-5122,1079,-.1,-.1,-1.1,1.1,4.0,2.5,1.9,1.2,-80.4,100,100,6,0,1745579883561,103,1,0,1,0,0,0,1.9,0,0,0,0,0,3822,3790,,,,,,,,,,,,,,,,57911e63-5854-4165-8c6a-7b622a5f22ad,Rustow_North,Idle,-1,,,,,,,,0,0.0,0.0,0.0,0.0,0.0,0.0,0.0,0.0,0.0,0.0,0,0,0,0,0,0,0,0,0,0,0,0,
8,837,0.837s,GPS_ATTI,19,5,53.93224434,13.05905424,1,3.3,,53.93224419,13.05905614,0.1,0.4,,57,7.323,29.6,-5122,1079,0,0,-.9,0.9,3.2,2.0,2.1,2.1,-80.3,100,100,6,0,1745579883662,101,1,0,1,0,0,0,1.9,0,0,0,0,0,3822,3790,,,,,,,,,,,,,,,,57911e63-5854-4165-8c6a-7b622a5f22ad,Rustow_North,Idle,-1,,,,,,,,0,0.0,0.0,0.0,0.0,0.0,0.0,0.0,0.0,0.0,0.0,0,0,0,0,0,0,0,0,0,0,0,0,
9,939,0.939s,GPS_ATTI,20,5,53.93224411,13.05905361,1.1,3.6,,53.93224419,13.05905614,0.2,0.5,,57,7.323,29.6,-5122,1079,0,0,-.7,0.7,2.5,1.6,2.2,2.5,-80.2,100,100,6,0,1745579883764,102,1,0,1,0,0,0,1.9,0,0,0,0,0,3822,3790,,,,,,,,,,,,,,,,57911e63-5854-4165-8c6a-7b622a5f22ad,Rustow_North,Idle,-1,,,,,,,,0,0.0,0.0,0.0,0.0,0.0,0.0,0.0,0.0,0.0,0.0,0,0,0,0,0,0,0,0,0,0,0,0,
10,1040,1.04s,GPS_ATTI,20,5,53.93224411,13.05905361,1.1,3.6,,53.93224419,13.05905614,0.2,0.5,,57,7.323,29.6,-5122,1079,0,0,-.4,0.4,1.4,0.9,2.1,2.6,-80.2,100,100,6,0,1745579883865,101,1,0,1,0,0,0,1.7,0,0,0,0,0,3822,3790,,,,,,,,,,,,,,,,57911e63-5854-4165-8c6a-7b622a5f22ad,Rustow_North,Idle,-1,,,,,,,,0,0.0,0.0,0.0,0.0,0.0,0.0,0.0,0.0,0.0,0.0,0,0,0,0,0,0,0,0,0,0,0,0,
11,1142,1.142s,GPS_ATTI,20,5,53.93224424,13.05905292,1.2,3.9,,53.93224419,13.05905614,0.2,0.7,,57,7.323,29.6,-5122,1079,0,0,-.2,0.2,0.7,0.4,1.4,2.1,-80.3,100,100,6,0,1745579883967,102,1,0,1,0,0,0,1.8,0,0,0,0,0,3822,3790,,,,,,,,,,,,,,,,57911e63-5854-4165-8c6a-7b622a5f22ad,Rustow_North,Idle,-1,,,,,,,,0,0.0,0.0,0.0,0.0,0.0,0.0,0.0,0.0,0.0,0.0,0,0,0,0,0,0,0,0,0,0,0,0,
12,1244,1.244s,GPS_ATTI,20,5,53.93224424,13.05905292,1.2,3.9,,53.93224419,13.05905614,0.2,0.7,,57,7.323,29.6,-5122,1079,0,0,0,0,0,0,1.7,1.4,-80.3,100,100,6,0,1745579884069,102,1,0,1,0,0,0,1.8,0,0,0,0,0,3719,3687,,,,,,,,,,,,,,,,57911e63-5854-4165-8c6a-7b622a5f22ad,Rustow_North,Idle,-1,,,,,,,,0,0.0,0.0,0.0,0.0,0.0,0.0,0.0,0.0,0.0,0.0,0,0,0,0,0,0,0,0,0,0,0,0,
13,1346,1.346s,GPS_ATTI,20,5,53.93224424,13.05905292,1.2,3.9,,53.93224419,13.05905614,0.2,0.7,,57,7.323,29.6,-5122,1079,0,0,0,0,0,0,1.4,0.2,-80.5,100,100,6,0,1745579884171,102,1,0,1,0,0,0,2,0,0,0,0,0,3719,3687,,,,,,,,,,,,,,,,57911e63-5854-4165-8c6a-7b622a5f22ad,Rustow_North,Idle,-1,,,,,,,,0,0.0,0.0,0.0,0.0,0.0,0.0,0.0,0.0,0.0,0.0,0,0,0,0,0,0,0,0,0,0,0,0,
14,1447,1.447s,GPS_ATTI,20,5,53.93224424,13.05905292,1.2,3.9,,53.93224419,13.05905614,0.2,0.7,,57,7.323,29.6,-5122,1079,0,0,0,0,0,0,1.3,0.6,-80.5,100,100,6,0,1745579884272,101,1,0,1,0,0,0,2.1,0,0,0,0,0,3719,3687,,,,,,,,,,,,,,,,57911e63-5854-4165-8c6a-7b622a5f22ad,Rustow_North,Idle,-1,,,,,,,,0,0.0,0.0,0.0,0.0,0.0,0.0,0.0,0.0,0.0,0.0,0,0,0,0,0,0,0,0,0,0,0,0,
15,1548,1.548s,GPS_ATTI,20,5,53.93224424,13.05905292,1.2,3.9,,53.93224419,13.05905614,0.2,0.7,,57,7.323,29.6,-5122,1079,0,0,0,0,0,0,1.6,0.6,-80.4,100,100,6,0,1745579884373,101,1,0,1,0,0,0,2,0,0,0,0,0,3719,3687,,,,,,,,,,,,,,,,57911e63-5854-4165-8c6a-7b622a5f22ad,Rustow_North,Idle,-1,,,,,,,,0,0.0,0.0,0.0,0.0,0.0,0.0,0.0,0.0,0.0,0.0,0,0,0,0,0,0,0,0,0,0,0,0,
16,1649,1.649s,GPS_ATTI,20,5,53.93224424,13.05905292,1.2,3.9,,53.93224419,13.05905614,0.2,0.7,,57,7.323,29.6,-5122,1079,0,0,0,0,0,0,1.8,1.1,-80.4,100,100,6,0,1745579884474,101,1,0,1,0,0,0,1.9,0,0,0,0,0,3719,3687,,,,,,,,,,,,,,,,57911e63-5854-4165-8c6a-7b622a5f22ad,Rustow_North,Idle,-1,,,,,,,,0,0.0,0.0,0.0,0.0,0.0,0.0,0.0,0.0,0.0,0.0,0,0,0,0,0,0,0,0,0,0,0,0,
17,1751,1.751s,GPS_ATTI,21,5,53.93224424,13.05905292,1.2,3.9,,53.93224419,13.05905614,0.2,0.7,,57,7.466,29.6,-4145,1077,0,0,0,0,0,0,2.2,1.2,-80.4,100,100,6,0,1745579884576,102,1,0,1,0,0,0,2,0,0,0,0,0,3719,3687,,,,,,,,,,,,,,,,57911e63-5854-4165-8c6a-7b622a5f22ad,Rustow_North,Idle,-1,,,,,,,,0,0.0,0.0,0.0,0.0,0.0,0.0,0.0,0.0,0.0,0.0,0,0,0,0,0,0,0,0,0,0,0,0,
18,1853,1.853s,GPS_ATTI,21,5,53.93224424,13.05905292,1.2,3.9,,53.93224419,13.05905614,0.2,0.7,,57,7.466,29.6,-4145,1077,0,0,0,0,0,0,2.4,0.9,-80.4,100,100,6,0,1745579884678,102,1,0,1,0,0,0,2,0,0,0,0,0,3719,3687,,,,,,,,,,,,,,,,57911e63-5854-4165-8c6a-7b622a5f22ad,Rustow_North,Idle,-1,,,,,,,,0,0.0,0.0,0.0,0.0,0.0,0.0,0.0,0.0,0.0,0.0,0,0,0,0,0,0,0,0,0,0,0,0,
19,1955,1.955s,GPS_ATTI,21,5,53.93224424,13.05905292,1.2,3.9,,53.93224419,13.05905614,0.2,0.7,,57,7.466,29.6,-4145,1077,0,0,0,0,0,0,2.3,1.3,-80.3,100,100,6,0,1745579884780,102,1,0,1,0,0,0,1.9,0,0,0,0,0,3719,3687,,,,,,,,,,,,,,,,57911e63-5854-4165-8c6a-7b622a5f22ad,Rustow_North,Idle,-1,,,,,,,,0,0.0,0.0,0.0,0.0,0.0,0.0,0.0,0.0,0.0,0.0,0,0,0,0,0,0,0,0,0,0,0,0,
20,2057,2.057s,GPS_ATTI,21,5,53.93224394,13.0590517,1.3,4.3,,53.93224419,13.05905614,0.3,01.0,,57,7.466,29.6,-4145,1077,0,0,0,0,0,0,2,1.5,-80.3,100,100,6,0,1745579884882,102,1,0,1,0,0,0,1.9,0,0,0,0,0,3719,3687,,,,,,,,,,,,,,,,57911e63-5854-4165-8c6a-7b622a5f22ad,Rustow_North,Idle,-1,,,,,,,,0,0.0,0.0,0.0,0.0,0.0,0.0,0.0,0.0,0.0,0.0,0,0,0,0,0,0,0,0,0,0,0,0,
21,2159,2.159s,GPS_ATTI,22,5,53.93224394,13.0590517,1.3,4.3,,53.93224419,13.05905614,0.3,01.0,,57,7.466,29.6,-4145,1077,0,0,0,0,0,0,1.6,1.9,-80.3,100,100,6,0,1745579884984,102,1,0,1,0,0,0,1.9,0,0,0,0,0,3719,3687,,,,,,,,,,,,,,,,57911e63-5854-4165-8c6a-7b622a5f22ad,Rustow_North,Idle,-1,,,,,,,,0,0.0,0.0,0.0,0.0,0.0,0.0,0.0,0.0,0.0,0.0,0,0,0,0,0,0,0,0,0,0,0,0,
22,2260,2.26s,GPS_ATTI,22,5,53.93224394,13.0590517,1.3,4.3,,53.93224419,13.05905614,0.3,01.0,,57,7.466,29.6,-4145,1077,0,0,0,0,0,0,2,2.1,-80.3,100,100,6,0,1745579885085,101,1,0,1,0,0,0,1.9,0,0,0,0,0,3720,3684,,,,,,,,,,,,,,,,57911e63-5854-4165-8c6a-7b622a5f22ad,Rustow_North,Idle,-1,,,,,,,,0,0.0,0.0,0.0,0.0,0.0,0.0,0.0,0.0,0.0,0.0,0,0,0,0,0,0,0,0,0,0,0,0,
23,2361,2.361s,GPS_ATTI,22,5,53.93224394,13.0590517,1.3,4.3,,53.93224419,13.05905614,0.3,01.0,,57,7.466,29.6,-4145,1077,0,0,0,0,0,0,2.1,1.3,-80.3,100,100,6,0,1745579885186,101,1,0,1,0,0,0,1.9,0,0,0,0,0,3720,3684,,,,,,,,,,,,,,,,57911e63-5854-4165-8c6a-7b622a5f22ad,Rustow_North,Idle,-1,,,,,,,,0,0.0,0.0,0.0,0.0,0.0,0.0,0.0,0.0,0.0,0.0,0,0,0,0,0,0,0,0,0,0,0,0,
24,2463,2.463s,GPS_ATTI,22,5,53.93224394,13.0590517,1.3,4.3,,53.93224419,13.05905614,0.3,01.0,,57,7.466,29.6,-4145,1077,0,0,0,0,0,0,2.3,1.7,-80.1,100,100,6,0,1745579885288,102,1,0,1,0,0,0,1.9,0,0,0,0,0,3720,3684,,,,,,,,,,,,,,,,57911e63-5854-4165-8c6a-7b622a5f22ad,Rustow_North,Idle,-1,,,,,,,,0,0.0,0.0,0.0,0.0,0.0,0.0,0.0,0.0,0.0,0.0,0,0,0,0,0,0,0,0,0,0,0,0,
25,2564,2.564s,GPS_ATTI,22,5,53.93224394,13.0590517,1.3,4.3,,53.93224419,13.05905614,0.3,01.0,,57,7.466,29.6,-4145,1077,0,0,0,0,0,0,1.8,1.9,-80.1,100,100,6,0,1745579885389,101,1,0,1,0,0,0,1.9,0,0,0,0,0,3720,3684,,,,,,,,,,,,,,,,57911e63-5854-4165-8c6a-7b622a5f22ad,Rustow_North,Idle,-1,,,,,,,,0,0.0,0.0,0.0,0.0,0.0,0.0,0.0,0.0,0.0,0.0,0,0,0,0,0,0,0,0,0,0,0,0,
26,2665,2.665s,GPS_ATTI,22,5,53.93224334,13.05905057,1.3,4.3,,53.93224419,13.05905614,0.4,1.2,,57,7.466,29.6,-4145,1077,0,0,0,0,0,0,1.6,1.5,-80.4,100,100,6,0,1745579885490,101,1,0,1,0,0,0,2,0,0,0,0,0,3720,3684,,,,,,,,,,,,,,,,57911e63-5854-4165-8c6a-7b622a5f22ad,Rustow_North,Idle,-1,,,,,,,,0,0.0,0.0,0.0,0.0,0.0,0.0,0.0,0.0,0.0,0.0,0,0,0,0,0,0,0,0,0,0,0,0,
27,2767,2.767s,GPS_ATTI,22,5,53.93224334,13.05905057,1.3,4.3,,53.93224419,13.05905614,0.4,1.2,,57,7.383,29.7,-4726,1076,0,0,0,0,0,0,1.1,1.7,-80.4,100,100,6,0,1745579885592,102,1,0,1,0,0,0,1.8,0,0,0,0,0,3720,3684,,,,,,,,,,,,,,,,57911e63-5854-4165-8c6a-7b622a5f22ad,Rustow_North,Idle,-1,,,,,,,,0,0.0,0.0,0.0,0.0,0.0,0.0,0.0,0.0,0.0,0.0,0,0,0,0,0,0,0,0,0,0,0,0,
28,2868,2.868s,GPS_ATTI,22,5,53.93224334,13.05905057,1.3,4.3,,53.93224419,13.05905614,0.4,1.2,,57,7.383,29.7,-4726,1076,0,0,0,0,0,0,1.4,2.2,-80.1,100,100,6,0,1745579885693,101,1,0,1,0,0,0,1.7,0,0,0,0,0,3720,3684,,,,,,,,,,,,,,,,57911e63-5854-4165-8c6a-7b622a5f22ad,Rustow_North,Idle,-1,,,,,,,,0,0.0,0.0,0.0,0.0,0.0,0.0,0.0,0.0,0.0,0.0,0,0,0,0,0,0,0,0,0,0,0,0,
29,2969,2.969s,GPS_ATTI,23,5,53.93224334,13.05905057,1.3,4.3,,53.93224419,13.05905614,0.4,1.2,,57,7.383,29.7,-4726,1076,0,0,0,0,0,0,2,1.9,-80.1,100,100,6,0,1745579885794,101,1,0,1,0,0,0,1.7,0,0,0,0,0,3720,3684,,,,,,,,,,,,,,,,57911e63-5854-4165-8c6a-7b622a5f22ad,Rustow_North,Idle,-1,,,,,,,,0,0.0,0.0,0.0,0.0,0.0,0.0,0.0,0.0,0.0,0.0,0,0,0,0,0,0,0,0,0,0,0,0,
30,3070,3.07s,GPS_ATTI,23,5,53.93224334,13.05905057,1.3,4.3,,53.93224419,13.05905614,0.4,1.2,,57,7.383,29.7,-4726,1076,0,0,0,0,0,0,1.9,1.9,-80.2,100,100,6,0,1745579885895,101,1,0,1,0,0,0,1.7,0,0,0,0,0,3720,3684,,,,,,,,,,,,,,,,57911e63-5854-4165-8c6a-7b622a5f22ad,Rustow_North,Idle,-1,,,,,,,,0,0.0,0.0,0.0,0.0,0.0,0.0,0.0,0.0,0.0,0.0,0,0,0,0,0,0,0,0,0,0,0,0,
31,3172,3.172s,GPS_ATTI,23,5,53.93224334,13.05905057,1.3,4.3,,53.93224419,13.05905614,0.4,1.2,,57,7.383,29.7,-4726,1076,0,0,0,0,0,0,1.9,1.9,-80.2,100,100,6,0,1745579885997,102,1,0,1,0,0,0,1.7,0,0,0,0,0,3720,3684,,,,,,,,,,,,,,,,57911e63-5854-4165-8c6a-7b622a5f22ad,Rustow_North,Idle,-1,,,,,,,,0,0.0,0.0,0.0,0.0,0.0,0.0,0.0,0.0,0.0,0.0,0,0,0,0,0,0,0,0,0,0,0,0,
32,3273,3.273s,GPS_ATTI,23,5,53.93224334,13.05905057,1.3,4.3,,53.93224419,13.05905614,0.4,1.2,,57,7.383,29.7,-4726,1076,0,0,0,0,0,0,1.4,0.9,-80.1,100,100,6,0,1745579886098,101,1,0,1,0,0,0,1.8,0,0,0,0,0,3707,3671,,,,,,,,,,,,,,,,57911e63-5854-4165-8c6a-7b622a5f22ad,Rustow_North,Idle,-1,,,,,,,,0,0.0,0.0,0.0,0.0,0.0,0.0,0.0,0.0,0.0,0.0,0,0,0,0,0,0,0,0,0,0,0,0,
33,3374,3.374s,GPS_ATTI,23,5,53.93224334,13.05905057,1.3,4.3,,53.93224419,13.05905614,0.4,1.2,,57,7.383,29.7,-4726,1076,0,0,0,0,0,0,1.4,1.6,-80.2,100,100,6,0,1745579886199,101,1,0,1,0,0,0,1.8,0,0,0,0,0,3707,3671,,,,,,,,,,,,,,,,57911e63-5854-4165-8c6a-7b622a5f22ad,Rustow_North,Idle,-1,,,,,,,,0,0.0,0.0,0.0,0.0,0.0,0.0,0.0,0.0,0.0,0.0,0,0,0,0,0,0,0,0,0,0,0,0,
34,3475,3.475s,GPS_ATTI,23,5,53.93224334,13.05905057,1.3,4.3,,53.93224419,13.05905614,0.4,1.2,,57,7.383,29.7,-4726,1076,0,0,0,0,0,0,0.8,2,-80.1,100,100,6,0,1745579886300,101,1,0,1,0,0,0,1.7,0,0,0,0,0,3707,3671,,,,,,,,,,,,,,,,57911e63-5854-4165-8c6a-7b622a5f22ad,Rustow_North,Idle,-1,,,,,,,,0,0.0,0.0,0.0,0.0,0.0,0.0,0.0,0.0,0.0,0.0,0,0,0,0,0,0,0,0,0,0,0,0,
35,3576,3.576s,GPS_ATTI,23,5,53.93224243,13.0590513,1.3,4.3,,53.93224419,13.05905614,0.4,1.2,,57,7.383,29.7,-4726,1076,0,0,0,0,0,0,1.5,2.2,-80.1,100,100,6,0,1745579886401,101,1,0,1,0,0,0,1.7,0,0,0,0,0,3707,3671,,,,,,,,,,,,,,,,57911e63-5854-4165-8c6a-7b622a5f22ad,Rustow_North,Idle,-1,,,,,,,,0,0.0,0.0,0.0,0.0,0.0,0.0,0.0,0.0,0.0,0.0,0,0,0,0,0,0,0,0,0,0,0,0,
36,3677,3.677s,GPS_ATTI,23,5,53.93224243,13.0590513,1.3,4.3,,53.93224419,13.05905614,0.4,1.2,,57,7.383,29.7,-4726,1076,0,0,0,0,0,0,1.3,2.2,-80.1,100,100,6,0,1745579886502,101,1,0,1,0,0,0,1.7,0,0,0,0,0,3707,3671,,,,,,,,,,,,,,,,57911e63-5854-4165-8c6a-7b622a5f22ad,Rustow_North,Idle,-1,,,,,,,,0,0.0,0.0,0.0,0.0,0.0,0.0,0.0,0.0,0.0,0.0,0,0,0,0,0,0,0,0,0,0,0,0,
37,3778,3.778s,GPS_ATTI,25,5,53.93224243,13.0590513,1.3,4.3,,53.93224419,13.05905614,0.4,1.2,,57,7.377,29.6,-4669,1075,0,0,0,0,0,0,1,2.1,-80.1,100,100,6,0,1745579886603,101,1,0,1,0,0,0,1.8,0,0,0,0,0,3707,3671,,,,,,,,,,,,,,,,57911e63-5854-4165-8c6a-7b622a5f22ad,Rustow_North,Idle,-1,,,,,,,,0,0.0,0.0,0.0,0.0,0.0,0.0,0.0,0.0,0.0,0.0,0,0,0,0,0,0,0,0,0,0,0,0,
38,3879,3.879s,GPS_ATTI,25,5,53.93224243,13.0590513,1.3,4.3,,53.93224419,13.05905614,0.4,1.2,,57,7.377,29.6,-4669,1075,0,0,0,0,0,0,1.1,1.7,-80.2,100,100,6,0,1745579886704,101,1,0,1,0,0,0,1.8,0,0,0,0,0,3707,3671,,,,,,,,,,,,,,,,57911e63-5854-4165-8c6a-7b622a5f22ad,Rustow_North,Idle,-1,,,,,,,,0,0.0,0.0,0.0,0.0,0.0,0.0,0.0,0.0,0.0,0.0,0,0,0,0,0,0,0,0,0,0,0,0,
39,3980,3.98s,GPS_ATTI,25,5,53.93224243,13.0590513,1.3,4.3,,53.93224419,13.05905614,0.4,1.2,,57,7.377,29.6,-4669,1075,0,0,0,0,0,0,0.7,1.7,-80.3,100,100,6,0,1745579886805,101,1,0,1,0,0,0,1.8,0,0,0,0,0,3707,3671,,,,,,,,,,,,,,,,57911e63-5854-4165-8c6a-7b622a5f22ad,Rustow_North,Idle,-1,,,,,,,,0,0.0,0.0,0.0,0.0,0.0,0.0,0.0,0.0,0.0,0.0,0,0,0,0,0,0,0,0,0,0,0,0,
40,4081,4.081s,GPS_ATTI,24,5,53.93224243,13.0590513,1.3,4.3,,53.93224419,13.05905614,0.4,1.2,,57,7.377,29.6,-4669,1075,0,0,0,0,0,0,0.8,1.8,-80.3,100,100,6,0,1745579886906,101,1,0,1,0,0,0,1.8,0,0,0,0,0,3707,3671,,,,,,,,,,,,,,,,57911e63-5854-4165-8c6a-7b622a5f22ad,Rustow_North,Idle,-1,,,,,,,,0,0.0,0.0,0.0,0.0,0.0,0.0,0.0,0.0,0.0,0.0,0,0,0,0,0,0,0,0,0,0,0,0,
41,4181,4.181s,GPS_ATTI,24,5,53.93224243,13.0590513,1.3,4.3,,53.93224419,13.05905614,0.4,1.2,,57,7.377,29.6,-4669,1075,0,0,0,0,0,0,0.8,1.9,-80.2,100,100,6,0,1745579887006,100,1,0,1,0,0,0,1.8,0,0,0,0,0,3707,3671,,,,,,,,,,,,,,,,57911e63-5854-4165-8c6a-7b622a5f22ad,Rustow_North,Idle,-1,,,,,,,,0,0.0,0.0,0.0,0.0,0.0,0.0,0.0,0.0,0.0,0.0,0,0,0,0,0,0,0,0,0,0,0,0,
42,4282,4.282s,GPS_ATTI,24,5,53.93224243,13.0590513,1.3,4.3,,53.93224419,13.05905614,0.4,1.2,,57,7.377,29.6,-4669,1075,0,0,0,0,0,0,0.4,1.9,-80.1,100,100,6,0,1745579887107,101,1,0,1,0,0,0,1.7,0,0,0,0,0,3707,3671,,,,,,,,,,,,,,,,57911e63-5854-4165-8c6a-7b622a5f22ad,Rustow_North,Idle,-1,,,,,,,,0,0.0,0.0,0.0,0.0,0.0,0.0,0.0,0.0,0.0,0.0,0,0,0,0,0,0,0,0,0,0,0,0,
43,4384,4.384s,GPS_ATTI,24,5,53.93224243,13.0590513,1.3,4.3,,53.93224419,13.05905614,0.4,1.2,,57,7.377,29.6,-4669,1075,0,0,0,0,0,0,0.4,1.9,-80.1,100,100,6,0,1745579887209,102,1,0,1,0,0,0,1.8,0,0,0,0,0,3707,3671,,,,,,,,,,,,,,,,57911e63-5854-4165-8c6a-7b622a5f22ad,Rustow_North,Idle,-1,,,,,,,,0,0.0,0.0,0.0,0.0,0.0,0.0,0.0,0.0,0.0,0.0,0,0,0,0,0,0,0,0,0,0,0,0,
44,4485,4.485s,GPS_ATTI,22,5,53.93224268,13.0590496,1.3,4.3,,53.93224419,13.05905614,0.5,1.5,,57,7.377,29.6,-4669,1075,0,0,0,0,0,0,0.2,1.7,-80.1,100,100,6,0,1745579887310,101,1,0,1,0,0,0,1.8,0,0,0,0,0,3707,3671,,,,,,,,,,,,,,,,57911e63-5854-4165-8c6a-7b622a5f22ad,Rustow_North,Idle,-1,,,,,,,,0,0.0,0.0,0.0,0.0,0.0,0.0,0.0,0.0,0.0,0.0,0,0,0,0,0,0,0,0,0,0,0,0,
45,4598,4.598s,GPS_ATTI,22,5,53.93224268,13.0590496,1.3,4.3,,53.93224419,13.05905614,0.5,1.5,,57,7.377,29.6,-4669,1075,0,0,0,0,0,0,0.2,1.7,-80.1,100,100,6,0,1745579887423,113,1,0,1,0,0,0,1.7,0,0,0,0,0,3707,3671,,,,,,,,,,,,,,,,57911e63-5854-4165-8c6a-7b622a5f22ad,Rustow_North,Idle,-1,,,,,,,,0,0.0,0.0,0.0,0.0,0.0,0.0,0.0,0.0,0.0,0.0,0,0,0,0,0,0,0,0,0,0,0,0,
46,4705,4.705s,GPS_ATTI,22,5,53.93224268,13.0590496,1.3,4.3,,53.93224419,13.05905614,0.5,1.5,,57,7.377,29.6,-4669,1075,0,0,0,0,0,0,0.6,1.4,-80.1,100,100,6,0,1745579887530,107,1,0,1,0,0,0,1.7,0,0,0,0,0,3707,3671,,,,,,,,,,,,,,,,57911e63-5854-4165-8c6a-7b622a5f22ad,Rustow_North,Idle,-1,,,,,,,,0,0.0,0.0,0.0,0.0,0.0,0.0,0.0,0.0,0.0,0.0,0,0,0,0,0,0,0,0,0,0,0,0,
47,4806,4.806s,GPS_ATTI,22,5,53.93224353,13.05904858,1.3,4.3,,53.93224419,13.05905614,0.5,1.6,,57,7.362,29.6,-4687,1074,0,0,0,0,0,0,0.5,0.9,-80.2,100,100,6,0,1745579887631,101,1,0,1,0,0,0,1.8,0,0,0,0,0,3707,3671,,,,,,,,,,,,,,,,57911e63-5854-4165-8c6a-7b622a5f22ad,Rustow_North,Idle,-1,,,,,,,,0,0.0,0.0,0.0,0.0,0.0,0.0,0.0,0.0,0.0,0.0,0,0,0,0,0,0,0,0,0,0,0,0,
48,4908,4.908s,GPS_ATTI,22,5,53.93224353,13.05904858,1.3,4.3,,53.93224419,13.05905614,0.5,1.6,,57,7.362,29.6,-4687,1074,0,0,0,0,0,0,0.7,1,-80.2,100,100,6,0,1745579887733,102,1,0,1,0,0,0,1.8,0,0,0,0,0,3707,3671,,,,,,,,,,,,,,,,57911e63-5854-4165-8c6a-7b622a5f22ad,Rustow_North,Idle,-1,,,,,,,,0,0.0,0.0,0.0,0.0,0.0,0.0,0.0,0.0,0.0,0.0,0,0,0,0,0,0,0,0,0,0,0,0,
49,5009,5.009s,GPS_ATTI,22,5,53.93224353,13.05904858,1.3,4.3,,53.93224419,13.05905614,0.5,1.6,,57,7.362,29.6,-4687,1074,0,0,0,0,0,0,0.6,1.3,-80.2,100,100,6,0,1745579887834,101,1,0,1,0,0,0,1.8,0,0,0,0,0,3707,3671,,,,,,,,,,,,,,,,57911e63-5854-4165-8c6a-7b622a5f22ad,Rustow_North,Idle,-1,,,,,,,,0,0.0,0.0,0.0,0.0,0.0,0.0,0.0,0.0,0.0,0.0,0,0,0,0,0,0,0,0,0,0,0,0,
50,5110,5.11s,GPS_ATTI,21,5,53.93224353,13.05904858,1.3,4.3,,53.93224419,13.05905614,0.5,1.6,,57,7.362,29.6,-4687,1074,0,0,0,0,0,0,0.6,1.1,-80.2,100,100,6,0,1745579887935,101,1,0,1,0,0,0,1.8,0,0,0,0,0,3707,3671,,,,,,,,,,,,,,,,57911e63-5854-4165-8c6a-7b622a5f22ad,Rustow_North,Idle,-1,,,,,,,,0,0.0,0.0,0.0,0.0,0.0,0.0,0.0,0.0,0.0,0.0,0,0,0,0,0,0,0,0,0,0,0,0,
51,5211,5.211s,GPS_ATTI,21,5,53.93224353,13.05904858,1.3,4.3,,53.93224419,13.05905614,0.5,1.6,,57,7.362,29.6,-4687,1074,0,0,0,0,0,0,0.6,1.2,-80.2,100,100,6,0,1745579888036,101,1,0,1,0,0,0,1.8,0,0,0,0,0,3702,3665,,,,,,,,,,,,,,,,57911e63-5854-4165-8c6a-7b622a5f22ad,Rustow_North,Idle,-1,,,,,,,,0,0.0,0.0,0.0,0.0,0.0,0.0,0.0,0.0,0.0,0.0,0,0,0,0,0,0,0,0,0,0,0,0,
52,5312,5.312s,GPS_ATTI,22,5,53.93224353,13.05904858,1.3,4.3,,53.93224419,13.05905614,0.5,1.6,,57,7.362,29.6,-4687,1074,0,0,0,0,0,0,0.5,1.3,-80.2,100,100,6,0,1745579888137,101,1,0,1,0,0,0,1.8,0,0,0,0,0,3702,3665,,,,,,,,,,,,,,,,57911e63-5854-4165-8c6a-7b622a5f22ad,Rustow_North,Idle,-1,,,,,,,,0,0.0,0.0,0.0,0.0,0.0,0.0,0.0,0.0,0.0,0.0,0,0,0,0,0,0,0,0,0,0,0,0,
53,5413,5.413s,GPS_ATTI,22,5,53.93224353,13.05904858,1.3,4.3,,53.93224419,13.05905614,0.5,1.6,,57,7.362,29.6,-4687,1074,0,0,0,0,0,0,0.5,1.3,-80.2,100,100,6,0,1745579888238,101,1,0,1,0,0,0,1.8,0,0,0,0,0,3702,3665,,,,,,,,,,,,,,,,57911e63-5854-4165-8c6a-7b622a5f22ad,Rustow_North,Idle,-1,,,,,,,,0,0.0,0.0,0.0,0.0,0.0,0.0,0.0,0.0,0.0,0.0,0,0,0,0,0,0,0,0,0,0,0,0,
54,5516,5.516s,GPS_ATTI,22,5,53.93224353,13.05904858,1.3,4.3,,53.93224419,13.05905614,0.5,1.6,,57,7.362,29.6,-4687,1074,0,0,0,0,0,0,0.5,1,-80.2,100,100,6,0,1745579888341,103,1,0,1,0,0,0,1.8,0,0,0,0,0,3702,3665,,,,,,,,,,,,,,,,57911e63-5854-4165-8c6a-7b622a5f22ad,Rustow_North,Idle,-1,,,,,,,,0,0.0,0.0,0.0,0.0,0.0,0.0,0.0,0.0,0.0,0.0,0,0,0,0,0,0,0,0,0,0,0,0,
55,5617,5.617s,GPS_ATTI,22,5,53.93224353,13.05904858,1.3,4.3,,53.93224419,13.05905614,0.5,1.6,,57,7.362,29.6,-4687,1074,0,0,0,0,0,0,0.9,0.3,-80.1,100,100,6,0,1745579888442,101,1,0,1,0,0,0,1.7,0,0,0,0,0,3702,3665,,,,,,,,,,,,,,,,57911e63-5854-4165-8c6a-7b622a5f22ad,Rustow_North,Idle,-1,,,,,,,,0,0.0,0.0,0.0,0.0,0.0,0.0,0.0,0.0,0.0,0.0,0,0,0,0,0,0,0,0,0,0,0,0,
56,5717,5.717s,GPS_ATTI,22,5,53.93224439,13.05904802,1.3,4.3,,53.93224419,13.05905614,0.5,1.8,,57,7.362,29.6,-4687,1074,0,0,0,0,0,0,0.6,1.1,-80.1,100,100,6,0,1745579888542,100,1,0,1,0,0,0,1.7,0,0,0,0,0,3702,3665,,,,,,,,,,,,,,,,57911e63-5854-4165-8c6a-7b622a5f22ad,Rustow_North,Idle,-1,,,,,,,,0,0.0,0.0,0.0,0.0,0.0,0.0,0.0,0.0,0.0,0.0,0,0,0,0,0,0,0,0,0,0,0,0,
57,5818,5.818s,GPS_ATTI,22,5,53.93224439,13.05904802,1.3,4.3,,53.93224419,13.05905614,0.5,1.8,,57,7.351,29.7,-4710,1072,0,0,0,0,0,0,0.5,1.6,-80.1,100,100,6,0,1745579888643,101,1,0,1,0,0,0,1.7,0,0,0,0,0,3697,3660,,,,,,,,,,,,,,,,57911e63-5854-4165-8c6a-7b622a5f22ad,Rustow_North,Idle,-1,,,,,,,,0,0.0,0.0,0.0,0.0,0.0,0.0,0.0,0.0,0.0,0.0,0,0,0,0,0,0,0,0,0,0,0,0,
58,5920,5.92s,GPS_ATTI,22,5,53.93224439,13.05904802,1.3,4.3,,53.93224419,13.05905614,0.5,1.8,,57,7.351,29.7,-4710,1072,0,0,0,0,0,0,0.6,2.1,-80.2,100,100,6,0,1745579888745,102,1,0,1,0,0,0,1.8,0,0,0,0,0,3697,3660,,,,,,,,,,,,,,,,57911e63-5854-4165-8c6a-7b622a5f22ad,Rustow_North,Idle,-1,,,,,,,,0,0.0,0.0,0.0,0.0,0.0,0.0,0.0,0.0,0.0,0.0,0,0,0,0,0,0,0,0,0,0,0,0,
59,6022,6.022s,GPS_ATTI,22,5,53.93224439,13.05904802,1.3,4.3,,53.93224419,13.05905614,0.5,1.8,,57,7.351,29.7,-4710,1072,0,0,0,0,0,0,0.3,1.5,-80.2,100,100,6,0,1745579888847,102,1,0,1,0,0,0,1.8,0,0,0,0,0,3697,3660,,,,,,,,,,,,,,,,57911e63-5854-4165-8c6a-7b622a5f22ad,Rustow_North,Idle,-1,,,,,,,,0,0.0,0.0,0.0,0.0,0.0,0.0,0.0,0.0,0.0,0.0,0,0,0,0,0,0,0,0,0,0,0,0,
60,6123,6.123s,GPS_ATTI,24,5,53.93224439,13.05904802,1.3,4.3,,53.93224419,13.05905614,0.5,1.8,,57,7.351,29.7,-4710,1072,0,0,0,0,0,0,0,1.7,-80.2,100,100,6,0,1745579888948,101,1,0,1,0,0,0,1.8,0,0,0,0,0,3697,3660,,,,,,,,,,,,,,,,57911e63-5854-4165-8c6a-7b622a5f22ad,Rustow_North,Idle,-1,,,,,,,,0,0.0,0.0,0.0,0.0,0.0,0.0,0.0,0.0,0.0,0.0,0,0,0,0,0,0,0,0,0,0,0,0,
61,6225,6.225s,GPS_ATTI,24,5,53.93224439,13.05904802,1.3,4.3,,53.93224419,13.05905614,0.5,1.8,,57,7.351,29.7,-4710,1072,0,0,0,0,0,0,0,1.7,-80.2,100,100,6,0,1745579889050,102,1,0,1,0,0,0,1.8,0,0,0,0,0,3697,3660,,,,,,,,,,,,,,,,57911e63-5854-4165-8c6a-7b622a5f22ad,Rustow_North,Idle,-1,,,,,,,,0,0.0,0.0,0.0,0.0,0.0,0.0,0.0,0.0,0.0,0.0,0,0,0,0,0,0,0,0,0,0,0,0,
62,6327,6.327s,GPS_ATTI,22,5,53.93224439,13.05904802,1.3,4.3,,53.93224419,13.05905614,0.5,1.8,,57,7.351,29.7,-4710,1072,0,0,0,0,0,0,0,1.9,-80.1,100,100,6,0,1745579889152,102,1,0,1,0,0,0,1.7,0,0,0,0,0,3697,3660,,,,,,,,,,,,,,,,57911e63-5854-4165-8c6a-7b622a5f22ad,Rustow_North,Idle,-1,,,,,,,,0,0.0,0.0,0.0,0.0,0.0,0.0,0.0,0.0,0.0,0.0,0,0,0,0,0,0,0,0,0,0,0,0,
63,6428,6.428s,GPS_ATTI,22,5,53.93224439,13.05904802,1.3,4.3,,53.93224419,13.05905614,0.5,1.8,,57,7.351,29.7,-4710,1072,0,0,0,0,0,0,-.1,1.7,-80.2,100,100,6,0,1745579889253,101,1,0,1,0,0,0,1.8,0,0,0,0,0,3697,3660,,,,,,,,,,,,,,,,57911e63-5854-4165-8c6a-7b622a5f22ad,Rustow_North,Idle,-1,,,,,,,,0,0.0,0.0,0.0,0.0,0.0,0.0,0.0,0.0,0.0,0.0,0,0,0,0,0,0,0,0,0,0,0,0,
64,6530,6.53s,GPS_ATTI,22,5,53.93224439,13.05904802,1.3,4.3,,53.93224419,13.05905614,0.5,1.8,,57,7.351,29.7,-4710,1072,0,0,0,0,0,0,-.2,1.6,-80.2,100,100,6,0,1745579889355,102,1,0,1,0,0,0,1.8,0,0,0,0,0,3697,3660,,,,,,,,,,,,,,,,57911e63-5854-4165-8c6a-7b622a5f22ad,Rustow_North,Idle,-1,,,,,,,,0,0.0,0.0,0.0,0.0,0.0,0.0,0.0,0.0,0.0,0.0,0,0,0,0,0,0,0,0,0,0,0,0,
65,6632,6.632s,GPS_ATTI,22,5,53.93224526,13.05904745,1.3,4.3,,53.93224419,13.05905614,0.6,1.9,,57,7.351,29.7,-4710,1072,0,0,0,0,0,0,0,1.8,-80.2,100,100,6,0,1745579889457,102,1,0,1,0,0,0,1.8,0,0,0,0,0,3697,3660,,,,,,,,,,,,,,,,57911e63-5854-4165-8c6a-7b622a5f22ad,Rustow_North,Idle,-1,,,,,,,,0,0.0,0.0,0.0,0.0,0.0,0.0,0.0,0.0,0.0,0.0,0,0,0,0,0,0,0,0,0,0,0,0,
66,6733,6.733s,GPS_ATTI,22,5,53.93224526,13.05904745,1.3,4.3,,53.93224419,13.05905614,0.6,1.9,,57,7.358,29.7,-4567,1071,0,0,0,0,0,0,-.1,2,-80.2,100,100,6,0,1745579889558,101,1,0,1,0,0,0,1.8,0,0,0,0,0,3697,3660,,,,,,,,,,,,,,,,57911e63-5854-4165-8c6a-7b622a5f22ad,Rustow_North,Idle,-1,,,,,,,,0,0.0,0.0,0.0,0.0,0.0,0.0,0.0,0.0,0.0,0.0,0,0,0,0,0,0,0,0,0,0,0,0,
67,6834,6.834s,GPS_ATTI,22,5,53.93224526,13.05904745,1.3,4.3,,53.93224419,13.05905614,0.6,1.9,,57,7.358,29.7,-4567,1071,0,0,0,0,0,0,-.4,1.8,-80.3,100,100,6,0,1745579889659,101,1,0,1,0,0,0,1.8,0,0,0,0,0,3697,3660,,,,,,,,,,,,,,,,57911e63-5854-4165-8c6a-7b622a5f22ad,Rustow_North,Idle,-1,,,,,,,,0,0.0,0.0,0.0,0.0,0.0,0.0,0.0,0.0,0.0,0.0,0,0,0,0,0,0,0,0,0,0,0,0,
68,6935,6.935s,GPS_ATTI,23,5,53.93224526,13.05904745,1.3,4.3,,53.93224419,13.05905614,0.6,1.9,,57,7.358,29.7,-4567,1071,0,0,0,0,0,0,-.1,1.5,-80.3,100,100,6,0,1745579889760,101,1,0,1,0,0,0,1.8,0,0,0,0,0,3697,3660,,,,,,,,,,,,,,,,57911e63-5854-4165-8c6a-7b622a5f22ad,Rustow_North,Idle,-1,,,,,,,,0,0.0,0.0,0.0,0.0,0.0,0.0,0.0,0.0,0.0,0.0,0,0,0,0,0,0,0,0,0,0,0,0,
69,7037,7.037s,GPS_ATTI,23,5,53.93224526,13.05904745,1.3,4.3,,53.93224419,13.05905614,0.6,1.9,,57,7.358,29.7,-4567,1071,0,0,0,0,0,0,0,1.6,-80.3,100,100,6,0,1745579889862,102,1,0,1,0,0,0,1.8,0,0,0,0,0,3697,3660,,,,,,,,,,,,,,,,57911e63-5854-4165-8c6a-7b622a5f22ad,Rustow_North,Idle,-1,,,,,,,,0,0.0,0.0,0.0,0.0,0.0,0.0,0.0,0.0,0.0,0.0,0,0,0,0,0,0,0,0,0,0,0,0,
70,7138,7.138s,GPS_ATTI,22,5,53.93224506,13.05904736,1.2,3.9,,53.93224419,13.05905614,0.6,1.9,,57,7.358,29.7,-4567,1071,0,0,0,0,0,0,0,1.7,-80.3,100,100,6,0,1745579889963,101,1,0,1,0,0,0,1.8,0,0,0,0,0,3697,3660,,,,,,,,,,,,,,,,57911e63-5854-4165-8c6a-7b622a5f22ad,Rustow_North,Idle,-1,,,,,,,,0,0.0,0.0,0.0,0.0,0.0,0.0,0.0,0.0,0.0,0.0,0,0,0,0,0,0,0,0,0,0,0,0,
71,7239,7.239s,GPS_ATTI,22,5,53.93224506,13.05904736,1.2,3.9,,53.93224419,13.05905614,0.6,1.9,,57,7.358,29.7,-4567,1071,0,0,0,0,0,0,0,2,-80.3,100,100,6,0,1745579890064,101,1,0,1,0,0,0,1.8,0,0,0,0,0,3697,3660,,,,,,,,,,,,,,,,57911e63-5854-4165-8c6a-7b622a5f22ad,Rustow_North,Idle,-1,,,,,,,,0,0.0,0.0,0.0,0.0,0.0,0.0,0.0,0.0,0.0,0.0,0,0,0,0,0,0,0,0,0,0,0,0,
72,7344,7.344s,GPS_ATTI,23,5,53.93224506,13.05904736,1.2,3.9,,53.93224419,13.05905614,0.6,1.9,,57,7.358,29.7,-4567,1071,0,0,0,0,0,0,0.1,2.1,-80.3,100,100,6,0,1745579890169,105,1,0,1,0,0,0,1.8,0,0,0,0,0,3697,3660,,,,,,,,,,,,,,,,57911e63-5854-4165-8c6a-7b622a5f22ad,Rustow_North,Idle,-1,,,,,,,,0,0.0,0.0,0.0,0.0,0.0,0.0,0.0,0.0,0.0,0.0,0,0,0,0,0,0,0,0,0,0,0,0,
73,7447,7.447s,GPS_ATTI,23,5,53.93224506,13.05904736,1.2,3.9,,53.93224419,13.05905614,0.6,1.9,,57,7.358,29.7,-4567,1071,0,0,0,0,0,0,0.4,2,-80.4,100,100,6,0,1745579890272,103,1,0,1,0,0,0,1.8,0,0,0,0,0,3697,3660,,,,,,,,,,,,,,,,57911e63-5854-4165-8c6a-7b622a5f22ad,Rustow_North,Idle,-1,,,,,,,,0,0.0,0.0,0.0,0.0,0.0,0.0,0.0,0.0,0.0,0.0,0,0,0,0,0,0,0,0,0,0,0,0,
74,7549,7.549s,GPS_ATTI,23,5,53.93224506,13.05904736,1.2,3.9,,53.93224419,13.05905614,0.6,1.9,,57,7.358,29.7,-4567,1071,0,0,0,0,0,0,0.4,1.8,-80.3,100,100,6,0,1745579890374,102,1,0,1,0,0,0,1.8,0,0,0,0,0,3697,3660,,,,,,,,,,,,,,,,57911e63-5854-4165-8c6a-7b622a5f22ad,Rustow_North,Idle,-1,,,,,,,,0,0.0,0.0,0.0,0.0,0.0,0.0,0.0,0.0,0.0,0.0,0,0,0,0,0,0,0,0,0,0,0,0,
75,7650,7.65s,GPS_ATTI,23,5,53.93224506,13.05904736,1.2,3.9,,53.93224419,13.05905614,0.6,1.9,,57,7.358,29.7,-4567,1071,0,0,0,0,0,0,0.3,2.1,-80.2,100,100,6,0,1745579890475,101,1,0,1,0,0,0,1.8,0,0,0,0,0,3697,3660,,,,,,,,,,,,,,,,57911e63-5854-4165-8c6a-7b622a5f22ad,Rustow_North,Idle,-1,,,,,,,,0,0.0,0.0,0.0,0.0,0.0,0.0,0.0,0.0,0.0,0.0,0,0,0,0,0,0,0,0,0,0,0,0,
76,7751,7.751s,GPS_ATTI,23,5,53.93224506,13.05904736,1.2,3.9,,53.93224419,13.05905614,0.6,1.9,,57,7.341,29.7,-4642,1070,0,0,0,0,0,0,1,1.6,-80.3,100,100,6,0,1745579890576,101,1,0,1,0,0,0,1.8,0,0,0,0,0,3691,3654,,,,,,,,,,,,,,,,57911e63-5854-4165-8c6a-7b622a5f22ad,Rustow_North,Idle,-1,,,,,,,,0,0.0,0.0,0.0,0.0,0.0,0.0,0.0,0.0,0.0,0.0,0,0,0,0,0,0,0,0,0,0,0,0,
77,7852,7.852s,GPS_ATTI,23,5,53.93224506,13.05904736,1.2,3.9,,53.93224419,13.05905614,0.6,1.9,,57,7.341,29.7,-4642,1070,0,0,0,0,0,0,0.7,1.9,-80.3,100,100,6,0,1745579890677,101,1,0,1,0,0,0,1.8,0,0,0,0,0,3691,3654,,,,,,,,,,,,,,,,57911e63-5854-4165-8c6a-7b622a5f22ad,Rustow_North,Idle,-1,,,,,,,,0,0.0,0.0,0.0,0.0,0.0,0.0,0.0,0.0,0.0,0.0,0,0,0,0,0,0,0,0,0,0,0,0,
78,7953,7.953s,GPS_ATTI,23,5,53.93224506,13.05904736,1.2,3.9,,53.93224419,13.05905614,0.6,1.9,,57,7.341,29.7,-4642,1070,0,0,0,0,0,0,0,1.4,-80.3,100,100,6,0,1745579890778,101,1,0,1,0,0,0,1.8,0,0,0,0,0,3691,3654,,,,,,,,,,,,,,,,57911e63-5854-4165-8c6a-7b622a5f22ad,Rustow_North,Idle,-1,,,,,,,,0,0.0,0.0,0.0,0.0,0.0,0.0,0.0,0.0,0.0,0.0,0,0,0,0,0,0,0,0,0,0,0,0,
79,8055,8.055s,GPS_ATTI,23,5,53.93224506,13.05904736,1.2,3.9,,53.93224419,13.05905614,0.6,1.9,,57,7.341,29.7,-4642,1070,0,0,0,0,0,0,0.3,1.4,-80.1,100,100,6,0,1745579890880,102,1,0,1,0,0,0,1.8,0,0,0,0,0,3691,3654,,,,,,,,,,,,,,,,57911e63-5854-4165-8c6a-7b622a5f22ad,Rustow_North,Idle,-1,,,,,,,,0,0.0,0.0,0.0,0.0,0.0,0.0,0.0,0.0,0.0,0.0,0,0,0,0,0,0,0,0,0,0,0,0,
80,8156,8.156s,GPS_ATTI,23,5,53.93224506,13.05904736,1.2,3.9,,53.93224419,13.05905614,0.6,1.9,,57,7.341,29.7,-4642,1070,0,0,0,0,0,0,0.8,0.7,-80.1,100,100,6,0,1745579890981,101,1,0,1,0,0,0,1.8,0,0,0,0,0,3691,3654,,,,,,,,,,,,,,,,57911e63-5854-4165-8c6a-7b622a5f22ad,Rustow_North,Idle,-1,,,,,,,,0,0.0,0.0,0.0,0.0,0.0,0.0,0.0,0.0,0.0,0.0,0,0,0,0,0,0,0,0,0,0,0,0,
81,8258,8.258s,GPS_ATTI,23,5,53.93224506,13.05904736,1.2,3.9,,53.93224419,13.05905614,0.6,1.9,,57,7.341,29.7,-4642,1070,0,0,0,0,0,0,1.3,1,-80.2,100,100,6,0,1745579891083,102,1,0,1,0,0,0,1.8,0,0,0,0,0,3691,3654,,,,,,,,,,,,,,,,57911e63-5854-4165-8c6a-7b622a5f22ad,Rustow_North,Idle,-1,,,,,,,,0,0.0,0.0,0.0,0.0,0.0,0.0,0.0,0.0,0.0,0.0,0,0,0,0,0,0,0,0,0,0,0,0,
82,8360,8.36s,GPS_ATTI,23,5,53.93224506,13.05904736,1.2,3.9,,53.93224419,13.05905614,0.6,1.9,,57,7.341,29.7,-4642,1070,0,0,0,0,0,0,0.9,1.9,-80.2,100,100,6,0,1745579891185,102,1,0,1,0,0,0,1.8,0,0,0,0,0,3691,3654,,,,,,,,,,,,,,,,57911e63-5854-4165-8c6a-7b622a5f22ad,Rustow_North,Idle,-1,,,,,,,,0,0.0,0.0,0.0,0.0,0.0,0.0,0.0,0.0,0.0,0.0,0,0,0,0,0,0,0,0,0,0,0,0,
83,8461,8.461s,GPS_ATTI,23,5,53.93224506,13.05904736,1.2,3.9,,53.93224419,13.05905614,0.6,1.9,,57,7.341,29.7,-4642,1070,0,0,0,0,0,0,1,2.1,-80.2,100,100,6,0,1745579891286,101,1,0,1,0,0,0,1.8,0,0,0,0,0,3691,3654,,,,,,,,,,,,,,,,57911e63-5854-4165-8c6a-7b622a5f22ad,Rustow_North,Idle,-1,,,,,,,,0,0.0,0.0,0.0,0.0,0.0,0.0,0.0,0.0,0.0,0.0,0,0,0,0,0,0,0,0,0,0,0,0,
84,8562,8.562s,GPS_ATTI,23,5,53.93224506,13.05904736,1.2,3.9,,53.93224419,13.05905614,0.6,1.9,,57,7.341,29.7,-4642,1070,0,0,0,0,0,0,0.8,2,-80.3,100,100,6,0,1745579891387,101,1,0,1,0,0,0,1.8,0,0,0,0,0,3691,3654,,,,,,,,,,,,,,,,57911e63-5854-4165-8c6a-7b622a5f22ad,Rustow_North,Idle,-1,,,,,,,,0,0.0,0.0,0.0,0.0,0.0,0.0,0.0,0.0,0.0,0.0,0,0,0,0,0,0,0,0,0,0,0,0,
85,8664,8.664s,GPS_ATTI,23,5,53.93224506,13.05904736,1.2,3.9,,53.93224419,13.05905614,0.6,1.9,,57,7.341,29.7,-4642,1070,0,0,0,0,0,0,0.4,2.2,-80.3,100,100,6,0,1745579891489,102,1,0,1,0,0,0,1.8,0,0,0,0,0,3691,3654,,,,,,,,,,,,,,,,57911e63-5854-4165-8c6a-7b622a5f22ad,Rustow_North,Idle,-1,,,,,,,,0,0.0,0.0,0.0,0.0,0.0,0.0,0.0,0.0,0.0,0.0,0,0,0,0,0,0,0,0,0,0,0,0,
86,8764,8.764s,GPS_ATTI,23,5,53.9322446,13.05904638,1.1,3.6,,53.93224419,13.05905614,0.6,2.1,,57,7.331,29.7,-4684,1068,0,0,0,0,0,0,0.3,1.9,-80.2,100,100,6,0,1745579891589,100,1,0,1,0,0,0,1.8,0,0,0,0,0,3685,3646,,,,,,,,,,,,,,,,57911e63-5854-4165-8c6a-7b622a5f22ad,Rustow_North,Idle,-1,,,,,,,,0,0.0,0.0,0.0,0.0,0.0,0.0,0.0,0.0,0.0,0.0,0,0,0,0,0,0,0,0,0,0,0,0,
87,8866,8.866s,GPS_ATTI,23,5,53.9322446,13.05904638,1.1,3.6,,53.93224419,13.05905614,0.6,2.1,,57,7.331,29.7,-4684,1068,0,0,0,0,0,0,0.4,1.7,-80.3,100,100,6,0,1745579891691,102,1,0,1,0,0,0,1.8,0,0,0,0,0,3685,3646,,,,,,,,,,,,,,,,57911e63-5854-4165-8c6a-7b622a5f22ad,Rustow_North,Idle,-1,,,,,,,,0,0.0,0.0,0.0,0.0,0.0,0.0,0.0,0.0,0.0,0.0,0,0,0,0,0,0,0,0,0,0,0,0,
88,8968,8.968s,GPS_ATTI,23,5,53.9322446,13.05904638,1.1,3.6,,53.93224419,13.05905614,0.6,2.1,,57,7.331,29.7,-4684,1068,0,0,0,0,0,0,0.4,1.7,-80.3,100,100,6,0,1745579891793,102,1,0,1,0,0,0,1.8,0,0,0,0,0,3685,3646,,,,,,,,,,,,,,,,57911e63-5854-4165-8c6a-7b622a5f22ad,Rustow_North,Idle,-1,,,,,,,,0,0.0,0.0,0.0,0.0,0.0,0.0,0.0,0.0,0.0,0.0,0,0,0,0,0,0,0,0,0,0,0,0,
89,9069,9.069s,GPS_ATTI,24,5,53.9322446,13.05904638,1.1,3.6,,53.93224419,13.05905614,0.6,2.1,,57,7.331,29.7,-4684,1068,0,0,0,0,0,0,0.8,1,-80.3,100,100,6,0,1745579891894,101,1,0,0,0,0,0,1.8,0,0,0,0,0,3685,3646,,,,,,,,,,,,,,,,57911e63-5854-4165-8c6a-7b622a5f22ad,Rustow_North,Idle,-1,,,,,,,,0,0.0,0.0,0.0,0.0,0.0,0.0,0.0,0.0,0.0,0.0,0,0,0,0,0,0,0,0,0,0,0,0,
90,9170,9.17s,GPS_ATTI,24,5,53.9322446,13.05904638,1.1,3.6,,53.93224419,13.05905614,0.6,2.1,,57,7.331,29.7,-4684,1068,0,0,0,0,0,0,1.2,1.5,-80.2,100,100,6,0,1745579891995,101,1,0,0,0,0,0,1.7,0,0,0,0,0,3685,3646,,,,,,,,,,,,,,,,57911e63-5854-4165-8c6a-7b622a5f22ad,Rustow_North,Idle,-1,,,,,,,,0,0.0,0.0,0.0,0.0,0.0,0.0,0.0,0.0,0.0,0.0,0,0,0,0,0,0,0,0,0,0,0,0,
91,9271,9.271s,GPS_ATTI,24,5,53.9322446,13.05904638,1.1,3.6,,53.93224419,13.05905614,0.6,2.1,,57,7.331,29.7,-4684,1068,0,0,0,0,0,0,1.2,1.4,-80.2,100,100,6,0,1745579892096,101,1,0,0,0,0,0,1.8,0,0,0,0,0,3685,3646,,,,,,,,,,,,,,,,57911e63-5854-4165-8c6a-7b622a5f22ad,Rustow_North,Idle,-1,,,,,,,,0,0.0,0.0,0.0,0.0,0.0,0.0,0.0,0.0,0.0,0.0,0,0,0,0,0,0,0,0,0,0,0,0,
92,9373,9.373s,GPS_ATTI,24,5,53.9322446,13.05904638,1.1,3.6,,53.93224419,13.05905614,0.6,2.1,,57,7.331,29.7,-4684,1068,0,0,0,0,0,0,0.9,0.9,-80.2,100,100,6,0,1745579892198,102,1,0,0,0,0,0,1.8,0,0,0,0,0,3685,3646,,,,,,,,,,,,,,,,57911e63-5854-4165-8c6a-7b622a5f22ad,Rustow_North,Idle,-1,,,,6619758,MP4,DJI_0384.mp4,701651539,0,0.0,0.0,0.0,0.0,0.0,0.0,0.0,0.0,0.0,0.0,0,0,0,0,0,0,0,0,0,0,0,0,
93,9476,9.476s,GPS_ATTI,24,5,53.9322446,13.05904638,1.1,3.6,,53.93224419,13.05905614,0.6,2.1,,57,7.331,29.7,-4684,1068,0,0,0,0,0,0,0.9,0.9,-80.2,100,100,6,0,1745579892301,103,1,0,0,0,0,0,1.8,0,0,0,0,0,3685,3646,,,,,,,,,,,,,,,,57911e63-5854-4165-8c6a-7b622a5f22ad,Rustow_North,Idle,-1,,,,,,,,0,0.0,0.0,0.0,0.0,0.0,0.0,0.0,0.0,0.0,0.0,0,0,0,0,0,0,0,0,0,0,0,0,
94,9577,9.577s,GPS_ATTI,24,5,53.9322446,13.05904638,1.1,3.6,,53.93224419,13.05905614,0.6,2.1,,57,7.331,29.7,-4684,1068,0,0,0,0,0,0,0.8,0.9,-80.3,100,100,6,0,1745579892402,101,1,0,0,0,0,0,1.8,0,0,0,0,0,3685,3646,,,,,,,,,,,,,,,,57911e63-5854-4165-8c6a-7b622a5f22ad,Rustow_North,Idle,-1,,,,,,,,0,0.0,0.0,0.0,0.0,0.0,0.0,0.0,0.0,0.0,0.0,0,0,0,0,0,0,0,0,0,0,0,0,
95,9678,9.678s,GPS_ATTI,24,5,53.9322446,13.05904638,1.1,3.6,,53.93224419,13.05905614,0.6,2.1,,57,7.331,29.7,-4684,1068,0,0,0,0,0,0,0.5,0.9,-80.3,100,100,6,0,1745579892503,101,1,0,0,0,0,0,2,0,0,0,0,0,3685,3646,,,,,,,,,,,,,,,,57911e63-5854-4165-8c6a-7b622a5f22ad,Rustow_North,Idle,-1,,,,,,,,0,0.0,0.0,0.0,0.0,0.0,0.0,0.0,0.0,0.0,0.0,0,0,0,0,0,0,0,0,0,0,0,0,
96,9779,9.779s,GPS_ATTI,24,5,53.9322446,13.05904638,1.1,3.6,,53.93224419,13.05905614,0.6,2.1,,57,7.299,29.7,-4803,1067,0,0,0,0,0,0,0.5,0.8,-80.5,100,100,6,0,1745579892604,101,1,0,0,0,0,0,2,0,0,0,0,0,3681,3643,,,,,,,,,,,,,,,,57911e63-5854-4165-8c6a-7b622a5f22ad,Rustow_North,Idle,-1,,,,,,,,0,0.0,0.0,0.0,0.0,0.0,0.0,0.0,0.0,0.0,0.0,0,0,0,0,0,0,0,0,0,0,0,0,
97,9880,9.88s,GPS_ATTI,24,5,53.9322446,13.05904638,1.1,3.6,,53.93224419,13.05905614,0.6,2.1,,57,7.299,29.7,-4803,1067,0,0,0,0,0,0,0.8,0.9,-80.4,100,100,6,0,1745579892705,101,1,0,0,0,0,0,2,0,0,0,0,0,3681,3643,,,,,,,,,,,,,,,,57911e63-5854-4165-8c6a-7b622a5f22ad,Rustow_North,Idle,-1,,,,,,,,0,0.0,0.0,0.0,0.0,0.0,0.0,0.0,0.0,0.0,0.0,0,0,0,0,0,0,0,0,0,0,0,0,
98,9981,9.981s,GPS_ATTI,24,5,53.9322446,13.05904638,1.1,3.6,,53.93224419,13.05905614,0.6,2.1,,57,7.299,29.7,-4803,1067,0,0,0,0,0,0,1,0.8,-80.5,100,100,6,0,1745579892806,101,1,0,0,0,0,0,2,0,0,0,0,0,3681,3643,,,,,,,,,,,,,,,,57911e63-5854-4165-8c6a-7b622a5f22ad,Rustow_North,Idle,-1,,,,,,,,0,0.0,0.0,0.0,0.0,0.0,0.0,0.0,0.0,0.0,0.0,0,0,0,0,0,0,0,0,0,0,0,0,
99,10081,10.081s,GPS_ATTI,24,5,53.9322446,13.05904638,1.1,3.6,,53.93224419,13.05905614,0.6,2.1,,57,7.299,29.7,-4803,1067,0,0,0,0,0,0,1,1.2,-80.4,100,100,6,0,1745579892906,100,1,0,0,0,0,0,1.9,0,0,0,0,0,3681,3643,,,,,,,,,,,,,,,,57911e63-5854-4165-8c6a-7b622a5f22ad,Rustow_North,Idle,-1,,,,,,,,0,0.0,0.0,0.0,0.0,0.0,0.0,0.0,0.0,0.0,0.0,0,0,0,0,0,0,0,0,0,0,0,0,
100,10182,10.182s,GPS_ATTI,24,5,53.9322446,13.05904638,1.1,3.6,,53.93224419,13.05905614,0.6,2.1,,57,7.299,29.7,-4803,1067,0,0,0,0,0,0,0.9,1.4,-80.3,100,100,6,0,1745579893007,101,1,0,0,0,0,0,1.9,0,0,0,0,0,3681,3643,,,,,,,,,,,,,,,,57911e63-5854-4165-8c6a-7b622a5f22ad,Rustow_North,Idle,-1,,,,,,,,0,0.0,0.0,0.0,0.0,0.0,0.0,0.0,0.0,0.0,0.0,0,0,0,0,0,0,0,0,0,0,0,0,
101,10283,10.283s,GPS_ATTI,24,5,53.9322446,13.05904638,1.1,3.6,,53.93224419,13.05905614,0.6,2.1,,57,7.299,29.7,-4803,1067,0,0,0,0,0,0,0.9,1.4,-80.3,100,100,6,0,1745579893108,101,1,0,0,0,0,0,1.9,0,0,0,0,0,3681,3643,,,,,,,,,,,,,,,,57911e63-5854-4165-8c6a-7b622a5f22ad,Rustow_North,Idle,-1,,,,,,,,0,0.0,0.0,0.0,0.0,0.0,0.0,0.0,0.0,0.0,0.0,0,0,0,0,0,0,0,0,0,0,0,0,
102,10384,10.384s,GPS_ATTI,24,5,53.9322446,13.05904638,1.1,3.6,,53.93224419,13.05905614,0.6,2.1,,57,7.299,29.7,-4803,1067,0,0,0,0,0,0,0.9,1.4,-80.3,100,100,6,0,1745579893209,101,1,0,0,0,0,0,1.9,0,0,0,0,0,3681,3643,,,,,,,,,,,,,,,,57911e63-5854-4165-8c6a-7b622a5f22ad,Rustow_North,Idle,-1,,,,,,,,0,0.0,0.0,0.0,0.0,0.0,0.0,0.0,0.0,0.0,0.0,0,0,0,0,0,0,0,0,0,0,0,0,
103,10485,10.485s,GPS_ATTI,22,5,53.9322454,13.05904567,1.1,3.6,,53.93224419,13.05905614,0.7,2.3,,57,7.299,29.7,-4803,1067,0,0,0,0,0,0,0.9,1.2,-80.2,100,100,6,0,1745579893310,101,1,0,0,0,0,0,1.9,0,0,0,0,0,3681,3643,,,,,,,,,,,,,,,,57911e63-5854-4165-8c6a-7b622a5f22ad,Rustow_North,Idle,-1,,,,,,,,0,0.0,0.0,0.0,0.0,0.0,0.0,0.0,0.0,0.0,0.0,0,0,0,0,0,0,0,0,0,0,0,0,
104,10585,10.585s,GPS_ATTI,22,5,53.9322454,13.05904567,1.1,3.6,,53.93224419,13.05905614,0.7,2.3,,57,7.299,29.7,-4803,1067,0,0,0,0,0,0,0.9,1.2,-80.2,100,100,6,0,1745579893410,100,1,0,0,0,0,0,1.9,0,0,0,0,0,3681,3643,,,,,,,,,,,,,,,,57911e63-5854-4165-8c6a-7b622a5f22ad,Rustow_North,Idle,-1,,,,,,,,0,0.0,0.0,0.0,0.0,0.0,0.0,0.0,0.0,0.0,0.0,0,0,0,0,0,0,0,0,0,0,0,0,
105,10686,10.686s,GPS_ATTI,22,5,53.93224556,13.05904532,1,3.3,,53.93224419,13.05905614,0.7,2.4,,57,7.299,29.7,-4803,1067,0,0,0,0,0,0,0.9,1,-80.2,100,100,6,0,1745579893511,101,1,0,0,0,0,0,1.9,0,0,0,0,0,3681,3643,,,,,,,,,,,,,,,,57911e63-5854-4165-8c6a-7b622a5f22ad,Rustow_North,Idle,-1,,,,,,,,0,0.0,0.0,0.0,0.0,0.0,0.0,0.0,0.0,0.0,0.0,0,0,0,0,0,0,0,0,0,0,0,0,
106,10788,10.788s,GPS_ATTI,22,5,53.93224556,13.05904532,1,3.3,,53.93224419,13.05905614,0.7,2.4,,57,7.311,29.7,-4735,1066,0,0,0,0,0,0,0.7,1.2,-80.2,100,100,6,0,1745579893613,102,1,0,0,0,0,0,1.9,0,0,0,0,0,3669,3632,,,,,,,,,,,,,,,,57911e63-5854-4165-8c6a-7b622a5f22ad,Rustow_North,Idle,-1,,,,,,,,0,0.0,0.0,0.0,0.0,0.0,0.0,0.0,0.0,0.0,0.0,0,0,0,0,0,0,0,0,0,0,0,0,
107,10889,10.889s,GPS_ATTI,21,5,53.93224556,13.05904532,1,3.3,,53.93224419,13.05905614,0.7,2.4,,57,7.311,29.7,-4735,1066,0,0,0,0,0,0,0.6,1,-80.2,100,100,6,0,1745579893714,101,1,0,0,0,0,0,1.7,0,0,46,0,0,3669,3632,,,,,,,,,,,,,,,,57911e63-5854-4165-8c6a-7b622a5f22ad,Rustow_North,Idle,-1,,,,,,,,0,0.0,0.0,0.0,0.0,0.0,0.0,0.0,0.0,0.0,0.0,0,0,0,0,0,0,0,0,0,0,0,0,
108,10989,10.989s,GPS_ATTI,21,5,53.93224556,13.05904532,1,3.3,,53.93224419,13.05905614,0.7,2.4,,57,7.311,29.7,-4735,1066,0,0,0,0,0,0,0.6,1,-80.2,100,100,6,0,1745579893814,100,1,0,0,0,0,0,1.7,0,0,46,0,0,3669,3632,,,,,,,,,,,,,,,,57911e63-5854-4165-8c6a-7b622a5f22ad,Rustow_North,Idle,-1,,,,,,,,0,0.0,0.0,0.0,0.0,0.0,0.0,0.0,0.0,0.0,0.0,0,0,0,0,0,0,0,0,0,0,0,0,
109,11090,11.09s,GPS_ATTI,21,5,53.93224556,13.05904532,1,3.3,,53.93224419,13.05905614,0.7,2.4,,57,7.311,29.7,-4735,1066,0,0,-.1,0.1,0.4,0.2,0.4,1.2,-80.4,100,100,6,0,1745579893915,101,1,0,0,0,0,0,2,0,0,446,0,0,3669,3632,,,,,,,,,,,,,,,,57911e63-5854-4165-8c6a-7b622a5f22ad,Rustow_North,Idle,-1,,,,,,,,0,0.0,0.0,0.0,0.0,0.0,0.0,0.0,0.0,0.0,0.0,0,0,0,0,0,0,0,0,0,0,0,0,
110,11191,11.191s,GPS_ATTI,21,5,53.93224563,13.05904488,1.1,3.6,,53.93224419,13.05905614,0.8,2.5,,57,7.311,29.7,-4735,1066,0,0,-.4,0.4,1.4,0.9,0.8,1.2,-80.4,100,100,6,0,1745579894016,101,1,0,0,0,0,0,1.9,0,0,577,0,0,3669,3632,,,,,,,,,,,,,,,,57911e63-5854-4165-8c6a-7b622a5f22ad,Rustow_North,Idle,-1,,,,,,,,0,0.0,0.0,0.0,0.0,0.0,0.0,0.0,0.0,0.0,0.0,0,0,0,0,0,0,0,0,0,0,0,0,
111,11293,11.293s,GPS_ATTI,21,5,53.93224563,13.05904488,1.1,3.6,,53.93224419,13.05905614,0.8,2.5,,57,7.311,29.7,-4735,1066,0,0,-.7,0.7,2.5,1.6,0.8,0.6,-80.4,100,100,6,0,1745579894118,102,1,0,0,0,0,0,2,0,9,600,0,0,3669,3632,,,,,,,,,,,,,,,,57911e63-5854-4165-8c6a-7b622a5f22ad,Rustow_North,Idle,-1,,,,,,,,0,0.0,0.0,0.0,0.0,0.0,0.0,0.0,0.0,0.0,0.0,0,0,0,0,0,0,0,0,0,0,0,0,
112,11394,11.394s,GPS_ATTI,21,5,53.93224565,13.0590447,1.2,3.9,,53.93224419,13.05905614,0.8,2.5,,57,7.311,29.7,-4735,1066,0,0,-1.1,1.1,4.0,2.5,1.1,0.3,-80.4,100,100,6,0,1745579894219,101,1,0,0,0,0,0,2,0,9,595,0,0,3669,3632,,,,,,,,,,,,,,,,57911e63-5854-4165-8c6a-7b622a5f22ad,Rustow_North,Idle,-1,,,,,,,,0,0.0,0.0,0.0,0.0,0.0,0.0,0.0,0.0,0.0,0.0,0,0,0,0,0,0,0,0,0,0,0,0,
113,11495,11.495s,GPS_ATTI,21,5,53.93224557,13.05904457,1.3,4.3,,53.93224419,13.05905614,0.8,2.5,,57,7.311,29.7,-4735,1066,0,0,-1.4,1.4,5.0,3.1,1.5,0.1,-80.4,100,100,6,0,1745579894320,101,1,0,0,0,0,0,2,0,6,592,0,0,3669,3632,,,,,,,,,,,,,,,,57911e63-5854-4165-8c6a-7b622a5f22ad,Rustow_North,Idle,-1,,,,,,,,0,0.0,0.0,0.0,0.0,0.0,0.0,0.0,0.0,0.0,0.0,0,0,0,0,0,0,0,0,0,0,0,0,
114,11596,11.596s,GPS_ATTI,21,5,53.93224561,13.05904446,1.5,4.9,,53.93224419,13.05905614,0.8,2.6,,57,7.311,29.7,-4735,1066,0,0,-1.8,1.8,6.5,4.0,1.8,1.3,-80.3,100,100,6,0,1745579894421,101,1,0,0,0,0,0,1.9,0,5,584,0,0,3669,3632,,,,,,,,,,,,,,,,57911e63-5854-4165-8c6a-7b622a5f22ad,Rustow_North,Idle,-1,,,,,,,,0,0.0,0.0,0.0,0.0,0.0,0.0,0.0,0.0,0.0,0.0,0,0,0,0,0,0,0,0,0,0,0,0,
115,11697,11.697s,GPS_ATTI,22,5,53.93224565,13.05904438,1.7,5.6,,53.93224419,13.05905614,0.8,2.6,,57,7.311,29.7,-4735,1066,0,0,-2.1,2.1,7.6,4.7,1.7,1.1,-80.2,100,100,6,0,1745579894522,101,1,0,0,0,0,0,1.9,0,13,583,0,0,3669,3632,,,,,,,,,,,,,,,,57911e63-5854-4165-8c6a-7b622a5f22ad,Rustow_North,Idle,-1,,,,,,,,0,0.0,0.0,0.0,0.0,0.0,0.0,0.0,0.0,0.0,0.0,0,0,0,0,0,0,0,0,0,0,0,0,
116,11798,11.798s,GPS_ATTI,22,5,53.93224556,13.05904442,1.9,6.2,,53.93224419,13.05905614,0.8,2.6,,57,7.182,29.7,-5670,1064,0,0,-2.3,2.3,8.3,5.1,1.3,0.6,-80.2,100,100,6,0,1745579894623,101,1,0,0,0,0,0,1.7,0,64,572,0,126,3673,3633,,,,,,,,,,,,,,,,57911e63-5854-4165-8c6a-7b622a5f22ad,Rustow_North,Idle,-1,,,,,,,,0,0.0,0.0,0.0,0.0,0.0,0.0,0.0,0.0,0.0,0.0,0,0,0,0,0,0,0,0,0,0,0,0,
117,11900,11.9s,GPS_ATTI,23,5,53.93224533,13.05904454,2.2,7.2,,53.93224419,13.05905614,0.8,2.5,,57,7.182,29.7,-5670,1064,0,0,-2.4,2.4,8.6,5.4,0.5,0.3,-80.1,100,100,6,0,1745579894725,102,1,0,0,0,0,0,1.7,0,64,572,0,126,3673,3633,,,,,,,,,,,,,,,,57911e63-5854-4165-8c6a-7b622a5f22ad,Rustow_North,Idle,-1,,,,,,,,0,0.0,0.0,0.0,0.0,0.0,0.0,0.0,0.0,0.0,0.0,0,0,0,0,0,0,0,0,0,0,0,0,
118,12001,12.001s,GPS_ATTI,23,5,53.93224533,13.05904452,2.4,7.9,,53.93224419,13.05905614,0.8,2.5,,57,7.182,29.7,-5670,1064,0,0,-2.4,2.4,8.6,5.4,-2.6,0,-80,100,100,6,0,1745579894826,101,1,0,0,0,0,0,1.7,0,55,462,0,454,3673,3633,,,,,,,,,,,,,,,,57911e63-5854-4165-8c6a-7b622a5f22ad,Rustow_North,Idle,-1,,,,,,,,0,0.0,0.0,0.0,0.0,0.0,0.0,0.0,0.0,0.0,0.0,0,0,0,0,0,0,0,0,0,0,0,0,
119,12102,12.102s,GPS_ATTI,23,5,53.93224534,13.05904439,2.6,8.5,,53.93224419,13.05905614,0.8,2.6,,57,7.182,29.7,-5670,1064,0,-.1,-2.3,2.3,8.3,5.1,-6.9,0.2,-80,100,100,6,0,1745579894927,101,1,0,0,0,0,0,1.8,0,55,462,0,454,3673,3633,,,,,,,,,,,,,,,,57911e63-5854-4165-8c6a-7b622a5f22ad,Rustow_North,Idle,-1,,,,,,,,0,0.0,0.0,0.0,0.0,0.0,0.0,0.0,0.0,0.0,0.0,0,0,0,0,0,0,0,0,0,0,0,0,
120,12203,12.203s,GPS_ATTI,23,5,53.93224532,13.05904409,2.8,9.2,,53.93224419,13.05905614,0.8,2.6,,57,7.182,29.7,-5670,1064,0,-.2,-2.1,2.1,7.6,4.7,-9.1,0.5,-79.7,100,100,6,0,1745579895028,101,1,0,0,0,0,0,1.6,0,0,206,0,554,3673,3633,,,,,,,,,,,,,,,,57911e63-5854-4165-8c6a-7b622a5f22ad,Rustow_North,Idle,-1,,,,,,,,0,0.0,0.0,0.0,0.0,0.0,0.0,0.0,0.0,0.0,0.0,0,0,0,0,0,0,0,0,0,0,0,0,
121,12304,12.304s,GPS_ATTI,23,5,53.9322453,13.05904358,3,9.8,,53.93224419,13.05905614,0.8,2.7,,57,7.182,29.7,-5670,1064,0,-.3,-1.8,1.8,6.6,4.1,-13.1,0.5,-79.8,100,100,6,0,1745579895129,101,1,0,0,0,0,0,1.6,0,0,0,0,612,3673,3633,,,,,,,,,,,,,,,,57911e63-5854-4165-8c6a-7b622a5f22ad,Rustow_North,Idle,-1,,,,,,,,0,0.0,0.0,0.0,0.0,0.0,0.0,0.0,0.0,0.0,0.0,0,0,0,0,0,0,0,0,0,0,0,0,
122,12405,12.405s,GPS_ATTI,23,5,53.93224543,13.05904286,3.2,10.5,,53.93224419,13.05905614,0.9,2.9,,57,7.182,29.7,-5670,1064,0,-.5,-1.4,1.5,5.4,3.3,-16,0.9,-79.9,100,100,6,0,1745579895230,101,1,0,0,0,0,0,1.8,0,0,0,0,616,3673,3633,,,,,,,,,,,,,,,,57911e63-5854-4165-8c6a-7b622a5f22ad,Rustow_North,Idle,-1,,,,,,,,0,0.0,0.0,0.0,0.0,0.0,0.0,0.0,0.0,0.0,0.0,0,0,0,0,0,0,0,0,0,0,0,0,
123,12508,12.508s,GPS_ATTI,24,5,53.9322456,13.05904182,3.3,10.8,,53.93224419,13.05905614,01.0,3.1,,57,7.182,29.7,-5670,1064,0.1,-.7,-1.1,1.3,4.7,2.9,-17.4,0.6,-79.9,100,100,6,0,1745579895333,103,1,0,0,0,0,0,1.8,0,0,0,0,617,3673,3633,,,,,,,,,,,,,,,,57911e63-5854-4165-8c6a-7b622a5f22ad,Rustow_North,Idle,-1,,,,,,,,0,0.0,0.0,0.0,0.0,0.0,0.0,0.0,0.0,0.0,0.0,0,0,0,0,0,0,0,0,0,0,0,0,
124,12610,12.61s,GPS_ATTI,24,5,53.93224582,13.05904048,3.4,11.2,,53.93224419,13.05905614,1.0,3.4,,57,7.182,29.7,-5670,1064,0.1,-1,-.7,1.2,4.4,2.7,-18.1,1,-79.9,100,100,6,0,1745579895435,102,1,0,0,0,0,0,1.8,0,0,0,0,619,3673,3633,,,,,,,,,,,,,,,,57911e63-5854-4165-8c6a-7b622a5f22ad,Rustow_North,Idle,-1,,,,,,,,0,0.0,0.0,0.0,0.0,0.0,0.0,0.0,0.0,0.0,0.0,0,0,0,0,0,0,0,0,0,0,0,0,
125,12711,12.711s,GPS_ATTI,24,5,53.93224607,13.05903877,3.4,11.2,,53.93224419,13.05905614,1.2,3.8,,57,7.182,29.7,-5670,1064,0.2,-1.2,-.4,1.3,4.6,2.9,-18.6,1.2,-80.1,100,100,6,0,1745579895536,101,1,0,0,0,0,0,1.8,0,0,0,0,621,3673,3633,,,,,,,,,,,,,,,,57911e63-5854-4165-8c6a-7b622a5f22ad,Rustow_North,Idle,-1,,,,,,,,0,0.0,0.0,0.0,0.0,0.0,0.0,0.0,0.0,0.0,0.0,0,0,0,0,0,0,0,0,0,0,0,0,
126,12815,12.815s,GPS_ATTI,24,5,53.93224678,13.05903656,3.5,11.5,,53.93224419,13.05905614,1.3,4.3,,57,7.346,29.8,-5272,1062,0.2,-1.4,-.1,1.4,5.1,3.2,-18.4,1.3,-80.2,100,100,6,0,1745579895640,104,1,0,0,0,0,0,2.1,0,0,0,0,621,3593,3548,,,,,,,,,,,,,,,,57911e63-5854-4165-8c6a-7b622a5f22ad,Rustow_North,Idle,-1,,,,,,,,0,0.0,0.0,0.0,0.0,0.0,0.0,0.0,0.0,0.0,0.0,0,0,0,0,0,0,0,0,0,0,0,0,
127,12917,12.917s,GPS_ATTI,24,5,53.93224709,13.05903403,3.5,11.5,,53.93224419,13.05905614,1.5,4.9,,57,7.346,29.8,-5272,1062,0.3,-1.7,0,1.7,6.2,3.9,-17.1,1.2,-80.1,100,100,6,0,1745579895742,102,1,0,0,0,0,0,2,0,0,0,0,621,3593,3548,,,,,,,,,,,,,,,,57911e63-5854-4165-8c6a-7b622a5f22ad,Rustow_North,Idle,-1,,,,,,,,0,0.0,0.0,0.0,0.0,0.0,0.0,0.0,0.0,0.0,0.0,0,0,0,0,0,0,0,0,0,0,0,0,
128,13018,13.018s,GPS_ATTI,24,5,53.93224737,13.05903111,3.5,11.5,,53.93224419,13.05905614,1.7,5.5,,57,7.346,29.8,-5272,1062,0.3,-2,0,2.0,7.3,4.5,-15.6,1.3,-80.1,100,100,6,0,1745579895843,101,1,0,0,0,0,0,2,0,0,0,0,621,3593,3548,,,,,,,,,,,,,,,,57911e63-5854-4165-8c6a-7b622a5f22ad,Rustow_North,Idle,-1,,,,,,,,0,0.0,0.0,0.0,0.0,0.0,0.0,0.0,0.0,0.0,0.0,0,0,0,0,0,0,0,0,0,0,0,0,
129,13119,13.119s,GPS_ATTI,25,5,53.9322477,13.05902767,3.5,11.5,,53.93224419,13.05905614,1.9,6.3,,57,7.346,29.8,-5272,1062,0.3,-2.2,0,2.2,8.0,5.0,-14.3,1.2,-80,100,100,6,0,1745579895944,101,1,0,0,0,0,0,2,0,0,0,0,621,3593,3548,,,,,,,,,,,,,,,,57911e63-5854-4165-8c6a-7b622a5f22ad,Rustow_North,Idle,-1,,,,,,,,0,0.0,0.0,0.0,0.0,0.0,0.0,0.0,0.0,0.0,0.0,0,0,0,0,0,0,0,0,0,0,0,0,
130,13221,13.221s,GPS_ATTI,25,5,53.93224771,13.05902402,3.5,11.5,,53.93224419,13.05905614,2.1,7.0,,57,7.346,29.8,-5272,1062,0.4,-2.4,0,2.4,8.8,5.4,-13.5,1.5,-79.9,100,100,6,0,1745579896046,102,1,0,0,0,0,0,2,0,0,0,0,621,3593,3548,,,,,,,,,,,,,,,,57911e63-5854-4165-8c6a-7b622a5f22ad,Rustow_North,Idle,-1,,,,,,,,0,0.0,0.0,0.0,0.0,0.0,0.0,0.0,0.0,0.0,0.0,0,0,0,0,0,0,0,0,0,0,0,0,
131,13323,13.323s,GPS_ATTI,27,5,53.93224795,13.05902008,3.5,11.5,,53.93224419,13.05905614,2.4,7.9,,57,7.346,29.8,-5272,1062,0.4,-2.6,0,2.6,9.5,5.9,-12.2,2.1,-79.9,100,100,6,0,1745579896148,102,1,0,0,0,0,0,1.9,0,0,0,0,621,3593,3548,,,,,,,,,,,,,,,,57911e63-5854-4165-8c6a-7b622a5f22ad,Rustow_North,Idle,-1,,,,,,,,0,0.0,0.0,0.0,0.0,0.0,0.0,0.0,0.0,0.0,0.0,0,0,0,0,0,0,0,0,0,0,0,0,
132,13424,13.424s,GPS_ATTI,27,5,53.9322483,13.05901598,3.6,11.8,,53.93224419,13.05905614,2.7,8.8,,57,7.346,29.8,-5272,1062,0.4,-2.8,0,2.8,10.2,6.3,-12.2,2.1,-80.1,100,100,6,0,1745579896249,101,1,0,0,0,0,0,2,0,0,0,0,552,3593,3548,,,,,,,,,,,,,,,,57911e63-5854-4165-8c6a-7b622a5f22ad,Rustow_North,Idle,-1,,,,,,,,0,0.0,0.0,0.0,0.0,0.0,0.0,0.0,0.0,0.0,0.0,0,0,0,0,0,0,0,0,0,0,0,0,
133,13527,13.527s,GPS_ATTI,26,5,53.93224871,13.05901142,3.6,11.8,,53.93224419,13.05905614,3.0,9.8,,57,7.346,29.8,-5272,1062,0.5,-2.9,0,2.9,10.6,6.6,-11.2,1.7,-80.1,100,100,6,0,1745579896352,103,1,0,0,0,0,0,2,0,0,0,0,437,3593,3548,,,,,,,,,,,,,,,,57911e63-5854-4165-8c6a-7b622a5f22ad,Rustow_North,Idle,-1,,,,,,,,0,0.0,0.0,0.0,0.0,0.0,0.0,0.0,0.0,0.0,0.0,0,0,0,0,0,0,0,0,0,0,0,0,
134,13629,13.629s,GPS_ATTI,26,5,53.93224946,13.05900726,3.6,11.8,,53.93224419,13.05905614,3.3,10.7,,57,7.346,29.8,-5272,1062,0.5,-3.1,0,3.1,11.3,7.0,-8.4,1.6,-80,100,100,6,0,1745579896454,102,1,0,0,0,0,0,1.9,0,0,0,0,406,3593,3548,,,,,,,,,,,,,,,,57911e63-5854-4165-8c6a-7b622a5f22ad,Rustow_North,Idle,-1,,,,,,,,0,0.0,0.0,0.0,0.0,0.0,0.0,0.0,0.0,0.0,0.0,0,0,0,0,0,0,0,0,0,0,0,0,
135,13731,13.731s,GPS_ATTI,26,5,53.93225004,13.05900252,3.6,11.8,,53.93224419,13.05905614,3.6,11.8,,56,7.280,29.8,-4258,1061,0.5,-3.1,0,3.1,11.3,7.0,-6.5,1.4,-79.9,100,100,6,0,1745579896556,102,1,0,0,0,0,0,1.9,0,0,0,0,0,3701,3658,,,,,,,,,,,,,,,,57911e63-5854-4165-8c6a-7b622a5f22ad,Rustow_North,Idle,-1,,,,,,,,0,0.0,0.0,0.0,0.0,0.0,0.0,0.0,0.0,0.0,0.0,0,0,0,0,0,0,0,0,0,0,0,0,
136,13833,13.833s,GPS_ATTI,26,5,53.93225065,13.05899781,3.6,11.8,,53.93224419,13.05905614,3.9,12.8,,56,7.280,29.8,-4258,1061,0.5,-3.1,0,3.1,11.3,7.0,10.3,1.8,-79.6,100,100,6,0,1745579896658,102,1,0,0,0,0,0,1.6,0,0,0,0,0,3701,3658,,,,,,,,,,,,,,,,57911e63-5854-4165-8c6a-7b622a5f22ad,Rustow_North,Idle,-1,,,,,,,,0,0.0,0.0,0.0,0.0,0.0,0.0,0.0,0.0,0.0,0.0,0,0,0,0,0,0,0,0,0,0,0,0,
137,13934,13.934s,GPS_ATTI,26,5,53.93225125,13.05899309,3.6,11.8,,53.93224419,13.05905614,4.2,13.8,,56,7.280,29.8,-4258,1061,0.5,-2.8,0,2.8,10.2,6.4,18.9,0.6,-79.3,100,100,6,0,1745579896759,101,1,0,0,0,0,0,1.2,0,0,0,0,14,3701,3658,,,,,,,,,,,,,,,,57911e63-5854-4165-8c6a-7b622a5f22ad,Rustow_North,Idle,-1,,,,,,,,0,0.0,0.0,0.0,0.0,0.0,0.0,0.0,0.0,0.0,0.0,0,0,0,0,0,0,0,0,0,0,0,0,
138,14037,14.037s,GPS_ATTI,26,5,53.93225229,13.05898961,3.6,11.8,,53.93224419,13.05905614,4.5,14.6,,56,7.280,29.8,-4258,1061,0.4,-2.5,0,2.5,9.1,5.7,18.9,0.6,-79.7,100,100,6,0,1745579896862,103,1,0,0,0,0,0,1.5,0,0,0,0,308,3701,3658,,,,,,,,,,,,,,,,57911e63-5854-4165-8c6a-7b622a5f22ad,Rustow_North,Idle,-1,,,,,,,,0,0.0,0.0,0.0,0.0,0.0,0.0,0.0,0.0,0.0,0.0,0,0,0,0,0,0,0,0,0,0,0,0,
139,14139,14.139s,GPS_ATTI,27,5,53.93225282,13.05898613,3.7,12.1,,53.93224419,13.05905614,4.7,15.4,,56,7.280,29.8,-4258,1061,0.3,-2.1,0,2.1,7.6,4.7,18.4,1.7,-79.5,100,100,6,0,1745579896964,102,1,0,0,0,0,0,1.4,0,0,0,0,426,3701,3658,,,,,,,,,,,,,,,,57911e63-5854-4165-8c6a-7b622a5f22ad,Rustow_North,Idle,-1,,,,,,,,0,0.0,0.0,0.0,0.0,0.0,0.0,0.0,0.0,0.0,0.0,0,0,0,0,0,0,0,0,0,0,0,0,
140,14240,14.24s,GPS_ATTI,27,5,53.9322531,13.0589833,3.7,12.1,,53.93224419,13.05905614,4.9,16.0,,56,7.280,29.8,-4258,1061,0.2,-1.8,0,1.8,6.5,4.1,12,2.4,-79.6,100,100,6,0,1745579897065,101,1,0,0,0,0,0,1.4,0,0,0,0,426,3701,3658,,,,,,,,,,,,,,,,57911e63-5854-4165-8c6a-7b622a5f22ad,Rustow_North,Idle,-1,,,,,,,,0,0.0,0.0,0.0,0.0,0.0,0.0,0.0,0.0,0.0,0.0,0,0,0,0,0,0,0,0,0,0,0,0,
141,14341,14.341s,GPS_ATTI,26,5,53.93225335,13.05898066,3.7,12.1,,53.93224419,13.05905614,5.1,16.6,,56,7.280,29.8,-4258,1061,0.2,-1.5,0,1.5,5.4,3.4,3.5,2.3,-80,100,100,6,0,1745579897166,101,1,0,0,0,0,0,1.8,0,0,0,0,426,3701,3658,,,,,,,,,,,,,,,,57911e63-5854-4165-8c6a-7b622a5f22ad,Rustow_North,Idle,-1,,,,,,,,0,0.0,0.0,0.0,0.0,0.0,0.0,0.0,0.0,0.0,0.0,0,0,0,0,0,0,0,0,0,0,0,0,
142,14443,14.443s,GPS_ATTI,26,5,53.93225361,13.05897858,3.7,12.1,,53.93224419,13.05905614,5.2,17.1,,56,7.280,29.8,-4258,1061,0.2,-1.4,0,1.4,5.1,3.2,-1.4,1.6,-79.9,100,100,6,0,1745579897268,102,1,0,0,0,0,0,2.1,0,0,0,0,404,3701,3658,,,,,,,,,,,,,,,,57911e63-5854-4165-8c6a-7b622a5f22ad,Rustow_North,Idle,-1,,,,,,,,0,0.0,0.0,0.0,0.0,0.0,0.0,0.0,0.0,0.0,0.0,0,0,0,0,0,0,0,0,0,0,0,0,
143,14547,14.547s,GPS_ATTI,25,5,53.93225374,13.05897713,3.7,12.1,,53.93224419,13.05905614,5.3,17.4,,56,7.280,29.8,-4258,1061,0.3,-1.6,0,1.6,5.9,3.6,-3,1.4,-80.1,100,100,6,0,1745579897372,104,1,0,0,0,0,0,2.4,0,-138,0,0,398,3701,3658,,,,,,,,,,,,,,,,57911e63-5854-4165-8c6a-7b622a5f22ad,Rustow_North,Idle,-1,,,,,,,,0,0.0,0.0,0.0,0.0,0.0,0.0,0.0,0.0,0.0,0.0,0,0,0,0,0,0,0,0,0,0,0,0,
144,14649,14.649s,GPS_ATTI,25,5,53.93225385,13.05897508,3.7,12.1,,53.93224419,13.05905614,5.4,17.8,,56,7.280,29.8,-4258,1061,0.2,-1.6,0,1.6,5.8,3.6,-3.1,1.4,-79.9,100,100,6,0,1745579897474,102,1,0,0,0,0,0,2.3,0,-283,0,0,397,3701,3658,,,,,,,,,,,,,,,,57911e63-5854-4165-8c6a-7b622a5f22ad,Rustow_North,Idle,-1,,,,,,,,0,0.0,0.0,0.0,0.0,0.0,0.0,0.0,0.0,0.0,0.0,0,0,0,0,0,0,0,0,0,0,0,0,
145,14751,14.751s,GPS_ATTI,26,5,53.93225396,13.05897286,3.7,12.1,,53.93224419,13.05905614,5.6,18.3,,56,7.294,29.8,-4637,1060,0.2,-1.7,0,1.7,6.2,3.8,-3.4,1.5,-80.3,100,100,6,0,1745579897576,102,1,0,0,0,0,0,2.4,0,-307,0,0,388,3672,3634,,,,,,,,,,,,,,,,57911e63-5854-4165-8c6a-7b622a5f22ad,Rustow_North,Idle,-1,,,,,,,,0,0.0,0.0,0.0,0.0,0.0,0.0,0.0,0.0,0.0,0.0,0,0,0,0,0,0,0,0,0,0,0,0,
146,14854,14.854s,GPS_ATTI,26,5,53.93225403,13.05897077,3.7,12.1,,53.93224419,13.05905614,5.7,18.7,,56,7.294,29.8,-4637,1060,0.2,-1.8,0,1.8,6.5,4.1,-3.7,1.2,-81.2,100,100,6,0,1745579897679,103,1,0,0,0,0,0,2.3,0,-439,0,0,323,3672,3634,,,,,,,,,,,,,,,,57911e63-5854-4165-8c6a-7b622a5f22ad,Rustow_North,Idle,-1,,,,,,,,0,0.0,0.0,0.0,0.0,0.0,0.0,0.0,0.0,0.0,0.0,0,0,0,0,0,0,0,0,0,0,0,0,
147,14958,14.958s,GPS_ATTI,25,5,53.93225341,13.05896957,3.7,12.1,,53.93224419,13.05905614,5.8,19.0,,56,7.294,29.8,-4637,1060,0.1,-1.8,0,1.8,6.5,4.0,-3.8,1.8,-82.3,100,100,6,0,1745579897783,104,1,0,0,0,0,0,2.3,0,-566,0,0,325,3672,3634,,,,,,,,,,,,,,,,57911e63-5854-4165-8c6a-7b622a5f22ad,Rustow_North,Idle,-1,,,,,,,,0,0.0,0.0,0.0,0.0,0.0,0.0,0.0,0.0,0.0,0.0,0,0,0,0,0,0,0,0,0,0,0,0,
148,15060,15.06s,GPS_ATTI,25,5,53.93225339,13.05896726,3.7,12.1,,53.93224419,13.05905614,5.9,19.4,,56,7.294,29.8,-4637,1060,0.1,-1.9,0,1.9,6.8,4.3,-2.4,1.9,-84.1,100,100,6,0,1745579897885,102,1,0,0,0,0,0,1.7,0,-660,0,0,342,3672,3634,,,,,,,,,,,,,,,,57911e63-5854-4165-8c6a-7b622a5f22ad,Rustow_North,Idle,-1,,,,,,,,0,0.0,0.0,0.0,0.0,0.0,0.0,0.0,0.0,0.0,0.0,0,0,0,0,0,0,0,0,0,0,0,0,
149,15162,15.162s,GPS_ATTI,26,5,53.93225338,13.05896475,3.7,12.1,,53.93224419,13.05905614,6.1,20.0,,56,7.294,29.8,-4637,1060,0.1,-1.8,0,1.8,6.5,4.0,-1.6,2.2,-86.9,100,100,6,0,1745579897987,102,1,0,0,0,0,0,1.4,0,-660,0,0,343,3672,3634,,,,,,,,,,,,,,,,57911e63-5854-4165-8c6a-7b622a5f22ad,Rustow_North,Idle,-1,,,,,,,,0,0.0,0.0,0.0,0.0,0.0,0.0,0.0,0.0,0.0,0.0,0,0,0,0,0,0,0,0,0,0,0,0,
150,15264,15.264s,GPS_ATTI,26,5,53.93225334,13.0589622,3.7,12.1,,53.93224419,13.05905614,6.3,20.5,,56,7.294,29.8,-4637,1060,0.1,-1.9,0,1.9,6.8,4.3,-2.6,3.2,-90.4,100,100,6,0,1745579898089,102,1,0,0,0,0,0,1.4,0,-660,0,0,177,3672,3634,,,,,,,,,,,,,,,,57911e63-5854-4165-8c6a-7b622a5f22ad,Rustow_North,Idle,-1,,,,,,,,0,0.0,0.0,0.0,0.0,0.0,0.0,0.0,0.0,0.0,0.0,0,0,0,0,0,0,0,0,0,0,0,0,
151,15365,15.365s,GPS_ATTI,25,5,53.93225307,13.05895935,3.7,12.1,,53.93224419,13.05905614,6.4,21.1,,56,7.294,29.8,-4637,1060,0.3,-2,0,2.0,7.3,4.5,-3.1,2.4,-95.2,100,100,6,0,1745579898190,101,1,0,0,0,0,0,1.4,0,-660,0,0,177,3672,3634,,,,,,,,,,,,,,,,57911e63-5854-4165-8c6a-7b622a5f22ad,Rustow_North,Idle,-1,,,,,,,,0,0.0,0.0,0.0,0.0,0.0,0.0,0.0,0.0,0.0,0.0,0,0,0,0,0,0,0,0,0,0,0,0,
152,15470,15.47s,GPS_ATTI,25,5,53.93225326,13.05895625,3.7,12.1,,53.93224419,13.05905614,6.6,21.8,,56,7.294,29.8,-4637,1060,0.3,-2,0,2.0,7.3,4.5,-1,1.2,-100.1,100,100,6,0,1745579898295,105,1,0,0,0,0,0,1,0,-660,0,0,38,3672,3634,,,,,,,,,,,,,,,,57911e63-5854-4165-8c6a-7b622a5f22ad,Rustow_North,Idle,-1,,,,,,,,0,0.0,0.0,0.0,0.0,0.0,0.0,0.0,0.0,0.0,0.0,0,0,0,0,0,0,0,0,0,0,0,0,
153,15573,15.573s,GPS_ATTI,22,5,53.93225345,13.05895298,3.7,12.1,,53.93224419,13.05905614,6.9,22.5,,56,7.294,29.8,-4637,1060,0.2,-2,0,2.0,7.2,4.5,1.8,0.4,-104.8,100,100,6,0,1745579898398,103,1,0,0,0,0,0,1.1,0,-660,0,0,42,3672,3634,,,,,,,,,,,,,,,,57911e63-5854-4165-8c6a-7b622a5f22ad,Rustow_North,Idle,-1,,,,,,,,0,0.0,0.0,0.0,0.0,0.0,0.0,0.0,0.0,0.0,0.0,0,0,0,0,0,0,0,0,0,0,0,0,
154,15676,15.676s,GPS_ATTI,22,5,53.93225357,13.05895013,3.8,12.5,,53.93224419,13.05905614,7.0,23.1,,56,7.294,29.8,-4637,1060,0.2,-2,0,2.0,7.2,4.5,3.2,0,-109.8,100,100,6,0,1745579898501,103,1,0,0,0,0,0,1.3,0,-660,0,0,177,3672,3634,,,,,,,,,,,,,,,,57911e63-5854-4165-8c6a-7b622a5f22ad,Rustow_North,Idle,-1,,,,,,,,0,0.0,0.0,0.0,0.0,0.0,0.0,0.0,0.0,0.0,0.0,0,0,0,0,0,0,0,0,0,0,0,0,
155,15777,15.777s,GPS_ATTI,22,5,53.93225372,13.05894668,3.8,12.5,,53.93224419,13.05905614,7.3,23.8,,56,7.291,29.8,-4451,1059,0.2,-1.8,0,1.8,6.5,4.1,3.3,-1,-114.8,100,100,6,0,1745579898602,101,1,0,0,0,0,0,1.2,0,-660,0,0,205,3670,3630,,,,,,,,,,,,,,,,57911e63-5854-4165-8c6a-7b622a5f22ad,Rustow_North,Idle,-1,,,,,,,,0,0.0,0.0,0.0,0.0,0.0,0.0,0.0,0.0,0.0,0.0,0,0,0,0,0,0,0,0,0,0,0,0,
156,15878,15.878s,GPS_ATTI,22,5,53.93225391,13.05894409,3.7,12.1,,53.93224419,13.05905614,7.4,24.4,,56,7.291,29.8,-4451,1059,0.2,-1.8,0,1.8,6.5,4.1,1.5,-1.2,-119.5,100,100,6,0,1745579898703,101,1,0,0,0,0,0,0.8,0,-660,0,0,212,3670,3630,,,,,,,,,,,,,,,,57911e63-5854-4165-8c6a-7b622a5f22ad,Rustow_North,Idle,-1,,,,,,,,0,0.0,0.0,0.0,0.0,0.0,0.0,0.0,0.0,0.0,0.0,0,0,0,0,0,0,0,0,0,0,0,0,
157,15980,15.98s,GPS_ATTI,22,5,53.93225407,13.05894143,3.7,12.1,,53.93224419,13.05905614,7.6,25.0,,56,7.291,29.8,-4451,1059,0.2,-1.8,0,1.8,6.5,4.1,0.7,-.7,-124,100,100,6,0,1745579898805,102,1,0,0,0,0,0,0.8,0,-660,0,0,212,3670,3630,,,,,,,,,,,,,,,,57911e63-5854-4165-8c6a-7b622a5f22ad,Rustow_North,Idle,-1,,,,,,,,0,0.0,0.0,0.0,0.0,0.0,0.0,0.0,0.0,0.0,0.0,0,0,0,0,0,0,0,0,0,0,0,0,
158,16081,16.081s,GPS_ATTI,22,5,53.93225412,13.05893874,3.7,12.1,,53.93224419,13.05905614,7.8,25.6,,56,7.291,29.8,-4451,1059,0.1,-1.8,0,1.8,6.5,4.0,0.2,-.7,-128.6,100,100,6,0,1745579898906,101,1,0,0,0,0,0,0.5,0,-660,0,0,216,3670,3630,,,,,,,,,,,,,,,,57911e63-5854-4165-8c6a-7b622a5f22ad,Rustow_North,Idle,-1,,,,,,,,0,0.0,0.0,0.0,0.0,0.0,0.0,0.0,0.0,0.0,0.0,0,0,0,0,0,0,0,0,0,0,0,0,
159,16184,16.184s,GPS_ATTI,22,5,53.93225442,13.05893221,3.7,12.1,,53.93224419,13.05905614,8.2,27.0,,56,7.291,29.8,-4451,1059,0.1,-1.8,0,1.8,6.5,4.0,0.3,-1.7,-138.1,100,100,6,0,1745579899009,103,1,0,0,0,0,0,0.3,0,-660,0,0,223,3670,3630,,,,,,,,,,,,,,,,57911e63-5854-4165-8c6a-7b622a5f22ad,Rustow_North,Idle,-1,,,,,,,,0,0.0,0.0,0.0,0.0,0.0,0.0,0.0,0.0,0.0,0.0,0,0,0,0,0,0,0,0,0,0,0,0,
